[
{"type":"Feature","geometry":{"type":"Point","coordinates":[34.8545671,32.1859672]},"properties":{"osm_id":"268157255","code":2101,"fclass":"pharmacy","name":"ניו-פארם"}},
    {"type":"Feature","geometry":{"type":"Point","coordinates":[34.8532639,32.1843372]},"properties":{"osm_id":"268157256","code":2101,"fclass":"pharmacy","name":"סופר-פארם"}},
    {"type":"Feature","geometry":{"type":"Point","coordinates":[34.8705448,32.3119596]},"properties":{"osm_id":"268162812","code":2101,"fclass":"pharmacy","name":""}},
    {"type":"Feature","geometry":{"type":"Point","coordinates":[34.8753482,32.3074322]},"properties":{"osm_id":"268272804","code":2101,"fclass":"pharmacy","name":""}},
    {"type":"Feature","geometry":{"type":"Point","coordinates":[34.7703146,32.081135]},"properties":{"osm_id":"345344454","code":2101,"fclass":"pharmacy","name":""}},
    {"type":"Feature","geometry":{"type":"Point","coordinates":[34.8537659,32.3270843]},"properties":{"osm_id":"355732415","code":2101,"fclass":"pharmacy","name":"סופר-פארם"}},
    {"type":"Feature","geometry":{"type":"Point","coordinates":[34.773619,32.0817306]},"properties":{"osm_id":"357297836","code":2101,"fclass":"pharmacy","name":"סופר-פארם"}},
    {"type":"Feature","geometry":{"type":"Point","coordinates":[34.8565102,32.3285124]},"properties":{"osm_id":"408741223","code":2101,"fclass":"pharmacy","name":"טבע"}},
    {"type":"Feature","geometry":{"type":"Point","coordinates":[35.1357329,31.7274668]},"properties":{"osm_id":"431628307","code":2101,"fclass":"pharmacy","name":"Do'a"}},
    {"type":"Feature","geometry":{"type":"Point","coordinates":[35.2761456,31.7183313]},"properties":{"osm_id":"431633392","code":2101,"fclass":"pharmacy","name":"Obaydia Pharmacy"}},
    {"type":"Feature","geometry":{"type":"Point","coordinates":[35.2237732,31.7010203]},"properties":{"osm_id":"431635691","code":2101,"fclass":"pharmacy","name":"صيدلية مها"}},
    {"type":"Feature","geometry":{"type":"Point","coordinates":[35.2150118,31.7046204]},"properties":{"osm_id":"431636552","code":2101,"fclass":"pharmacy","name":"Massad Pharmacy"}},
    {"type":"Feature","geometry":{"type":"Point","coordinates":[35.1706261,32.4468672]},"properties":{"osm_id":"431636895","code":2101,"fclass":"pharmacy","name":"Jawadphrmacy"}},
    {"type":"Feature","geometry":{"type":"Point","coordinates":[35.1752406,32.4457817]},"properties":{"osm_id":"431636899","code":2101,"fclass":"pharmacy","name":"Al-amal pharmacy"}},
    {"type":"Feature","geometry":{"type":"Point","coordinates":[35.1675601,32.4462638]},"properties":{"osm_id":"431636910","code":2101,"fclass":"pharmacy","name":"Al orooba pharmacy"}},
    {"type":"Feature","geometry":{"type":"Point","coordinates":[35.3720193,32.3178351]},"properties":{"osm_id":"431708578","code":2101,"fclass":"pharmacy","name":"Al Aqsa Pharmacy"}},
    {"type":"Feature","geometry":{"type":"Point","coordinates":[35.3720918,32.3145144]},"properties":{"osm_id":"431708585","code":2101,"fclass":"pharmacy","name":"Al Zaitoneh Pharmacy"}},
    {"type":"Feature","geometry":{"type":"Point","coordinates":[35.3669745,32.324918]},"properties":{"osm_id":"431708595","code":2101,"fclass":"pharmacy","name":"Al Monzer Pharmacy"}},
    {"type":"Feature","geometry":{"type":"Point","coordinates":[35.3683907,32.3229048]},"properties":{"osm_id":"431708605","code":2101,"fclass":"pharmacy","name":"Mariam Pharmacy"}},
    {"type":"Feature","geometry":{"type":"Point","coordinates":[35.3682197,32.3239533]},"properties":{"osm_id":"431708640","code":2101,"fclass":"pharmacy","name":"Al Sa'eed Pharmacy"}},
    {"type":"Feature","geometry":{"type":"Point","coordinates":[35.3708332,32.3212811]},"properties":{"osm_id":"431708664","code":2101,"fclass":"pharmacy","name":"Al nemer Pharmacy"}},
    {"type":"Feature","geometry":{"type":"Point","coordinates":[35.3705539,32.3219432]},"properties":{"osm_id":"431708670","code":2101,"fclass":"pharmacy","name":"Lo'ai Pharmacy"}},
    {"type":"Feature","geometry":{"type":"Point","coordinates":[35.3717776,32.3192583]},"properties":{"osm_id":"431708727","code":2101,"fclass":"pharmacy","name":"Abd Allah Pharmacy"}},
    {"type":"Feature","geometry":{"type":"Point","coordinates":[35.3717676,32.3202401]},"properties":{"osm_id":"431708758","code":2101,"fclass":"pharmacy","name":"Salah Pharmacy"}},
    {"type":"Feature","geometry":{"type":"Point","coordinates":[35.369575,32.3230934]},"properties":{"osm_id":"431708762","code":2101,"fclass":"pharmacy","name":"Al Farouq Pharmacy"}},
    {"type":"Feature","geometry":{"type":"Point","coordinates":[35.3851597,32.2823373]},"properties":{"osm_id":"431708783","code":2101,"fclass":"pharmacy","name":"Tamoun New Pharmacy"}},
    {"type":"Feature","geometry":{"type":"Point","coordinates":[35.3829388,32.2824352]},"properties":{"osm_id":"431708799","code":2101,"fclass":"pharmacy","name":"Abd Alrazaq Pharmacy"}},
    {"type":"Feature","geometry":{"type":"Point","coordinates":[35.2765006,32.3463697]},"properties":{"osm_id":"431713177","code":2101,"fclass":"pharmacy","name":"Tabarak Pharmacy"}},
    {"type":"Feature","geometry":{"type":"Point","coordinates":[35.2284385,32.508383]},"properties":{"osm_id":"431714009","code":2101,"fclass":"pharmacy","name":"مسجد سيلة الحارثية"}},
    {"type":"Feature","geometry":{"type":"Point","coordinates":[35.1567753,32.3754305]},"properties":{"osm_id":"431717914","code":2101,"fclass":"pharmacy","name":"صيدلية سلامة"}},
    {"type":"Feature","geometry":{"type":"Point","coordinates":[35.2705984,32.3473855]},"properties":{"osm_id":"431718770","code":2101,"fclass":"pharmacy","name":"Rasem Pharmacy"}},
    {"type":"Feature","geometry":{"type":"Point","coordinates":[35.2718751,32.3495065]},"properties":{"osm_id":"431725598","code":2101,"fclass":"pharmacy","name":"Alrabe3 Pharmacy"}},
    {"type":"Feature","geometry":{"type":"Point","coordinates":[35.1697388,32.501326]},"properties":{"osm_id":"431737129","code":2101,"fclass":"pharmacy","name":"صيدلية عانين"}},
    {"type":"Feature","geometry":{"type":"Point","coordinates":[35.2298754,32.4843423]},"properties":{"osm_id":"431740477","code":2101,"fclass":"pharmacy","name":"Al Redha Pharmacy"}},
    {"type":"Feature","geometry":{"type":"Point","coordinates":[35.2316097,32.4882595]},"properties":{"osm_id":"431751862","code":2101,"fclass":"pharmacy","name":"Al-Sho'ela Pharmacy"}},
    {"type":"Feature","geometry":{"type":"Point","coordinates":[35.304129,32.4620881]},"properties":{"osm_id":"431754446","code":2101,"fclass":"pharmacy","name":"Samar Pharmacy"}},
    {"type":"Feature","geometry":{"type":"Point","coordinates":[35.2219072,32.3239254]},"properties":{"osm_id":"431754715","code":2101,"fclass":"pharmacy","name":"Jaba' Pharmacy"}},
    {"type":"Feature","geometry":{"type":"Point","coordinates":[35.1962491,32.3612676]},"properties":{"osm_id":"431756592","code":2101,"fclass":"pharmacy","name":"'Ajja Pharmacy"}},
    {"type":"Feature","geometry":{"type":"Point","coordinates":[35.2025578,32.4063396]},"properties":{"osm_id":"431765948","code":2101,"fclass":"pharmacy","name":"Al Eman Pharmacy"}},
    {"type":"Feature","geometry":{"type":"Point","coordinates":[35.2036651,32.4055476]},"properties":{"osm_id":"431781004","code":2101,"fclass":"pharmacy","name":"Arabeh Pharmacy"}},
    {"type":"Feature","geometry":{"type":"Point","coordinates":[35.2304962,32.4853813]},"properties":{"osm_id":"431783101","code":2101,"fclass":"pharmacy","name":"Al-Yamon Pharmacy"}},
    {"type":"Feature","geometry":{"type":"Point","coordinates":[35.2281728,32.5087921]},"properties":{"osm_id":"431784686","code":2101,"fclass":"pharmacy","name":"صيدلية مكة المكرمة"}},
    {"type":"Feature","geometry":{"type":"Point","coordinates":[35.1372502,31.5745054]},"properties":{"osm_id":"431786229","code":2099,"fclass":"public_building","name":"Al Anwar Pharmacy"}},
    {"type":"Feature","geometry":{"type":"Point","coordinates":[35.0923408,31.4451051]},"properties":{"osm_id":"431801954","code":2101,"fclass":"pharmacy","name":"Al-Hekma pharmacy"}},
    {"type":"Feature","geometry":{"type":"Point","coordinates":[35.1494481,31.5774149]},"properties":{"osm_id":"431806864","code":2101,"fclass":"pharmacy","name":"Al Hadetha Shyoukh Pharmacy"}},
    {"type":"Feature","geometry":{"type":"Point","coordinates":[35.1027251,31.5274423]},"properties":{"osm_id":"431814408","code":2101,"fclass":"pharmacy","name":"Al Rahmeh Pharmacy"}},
    {"type":"Feature","geometry":{"type":"Point","coordinates":[35.0281666,31.5975224]},"properties":{"osm_id":"431830242","code":2101,"fclass":"pharmacy","name":"Tayyba Pharrmacy"}},
    {"type":"Feature","geometry":{"type":"Point","coordinates":[35.0964957,31.4519913]},"properties":{"osm_id":"431832889","code":2101,"fclass":"pharmacy","name":"Al-Ma'mon Pharmacy"}},
    {"type":"Feature","geometry":{"type":"Point","coordinates":[34.9749934,31.409626]},"properties":{"osm_id":"431842180","code":2101,"fclass":"pharmacy","name":"Alesra' Pharmacy"}},
    {"type":"Feature","geometry":{"type":"Point","coordinates":[35.1005851,31.5322211]},"properties":{"osm_id":"431850031","code":2101,"fclass":"pharmacy","name":"Ibn Haian Pharmacy"}},
    {"type":"Feature","geometry":{"type":"Point","coordinates":[35.0628837,31.5050532]},"properties":{"osm_id":"431851451","code":2101,"fclass":"pharmacy","name":"صيدلية الكرامة"}},
    {"type":"Feature","geometry":{"type":"Point","coordinates":[34.976265,31.4107768]},"properties":{"osm_id":"431853821","code":2101,"fclass":"pharmacy","name":"Anees Pharmacy"}},
    {"type":"Feature","geometry":{"type":"Point","coordinates":[35.1087422,31.6194605]},"properties":{"osm_id":"431855730","code":2101,"fclass":"pharmacy","name":"صيدلية الشهداء"}},
    {"type":"Feature","geometry":{"type":"Point","coordinates":[35.0895906,31.4488797]},"properties":{"osm_id":"431857441","code":2101,"fclass":"pharmacy","name":"Al-Buraq Pharmacy"}},
    {"type":"Feature","geometry":{"type":"Point","coordinates":[35.1629948,31.5174914]},"properties":{"osm_id":"431861857","code":2101,"fclass":"pharmacy","name":"صيدلية بني نعيم"}},
    {"type":"Feature","geometry":{"type":"Point","coordinates":[35.0212831,31.5991128]},"properties":{"osm_id":"431871196","code":2101,"fclass":"pharmacy","name":"Al Takwa Pharmacy"}},
    {"type":"Feature","geometry":{"type":"Point","coordinates":[35.0294617,31.5964327]},"properties":{"osm_id":"431876615","code":2101,"fclass":"pharmacy","name":"Beit Ula Pharmacy"}},
    {"type":"Feature","geometry":{"type":"Point","coordinates":[35.0893449,31.4450021]},"properties":{"osm_id":"431878955","code":2101,"fclass":"pharmacy","name":"صيدلية السلام"}},
    {"type":"Feature","geometry":{"type":"Point","coordinates":[35.1534777,31.6221501]},"properties":{"osm_id":"431886322","code":2101,"fclass":"pharmacy","name":"Al Quds Clinic"}},
    {"type":"Feature","geometry":{"type":"Point","coordinates":[35.1099325,31.5150831]},"properties":{"osm_id":"431886871","code":2101,"fclass":"pharmacy","name":"Al Hikmah Pharmacy"}},
    {"type":"Feature","geometry":{"type":"Point","coordinates":[35.2693013,32.2509096]},"properties":{"osm_id":"431897069","code":2101,"fclass":"pharmacy","name":"Al Hikmah"}},
    {"type":"Feature","geometry":{"type":"Point","coordinates":[35.0829338,31.5291565]},"properties":{"osm_id":"431899944","code":2101,"fclass":"pharmacy","name":"Al Sharawy Pharmacy"}},
    {"type":"Feature","geometry":{"type":"Point","coordinates":[35.0909116,31.4498629]},"properties":{"osm_id":"431905325","code":2101,"fclass":"pharmacy","name":"Al-Huda Pharmacy"}},
    {"type":"Feature","geometry":{"type":"Point","coordinates":[35.0865678,31.5120312]},"properties":{"osm_id":"431910807","code":2101,"fclass":"pharmacy","name":"Hijazi"}},
    {"type":"Feature","geometry":{"type":"Point","coordinates":[35.1616149,31.5168874]},"properties":{"osm_id":"431911326","code":2101,"fclass":"pharmacy","name":"صيدلية السلام الجديدة"}},
    {"type":"Feature","geometry":{"type":"Point","coordinates":[35.2505042,32.2208854]},"properties":{"osm_id":"431911387","code":2101,"fclass":"pharmacy","name":"New Hebron"}},
    {"type":"Feature","geometry":{"type":"Point","coordinates":[35.2416137,32.2225474]},"properties":{"osm_id":"431915395","code":2101,"fclass":"pharmacy","name":"صيدلية شقير"}},
    {"type":"Feature","geometry":{"type":"Point","coordinates":[35.2690866,32.2522434]},"properties":{"osm_id":"431919833","code":2101,"fclass":"pharmacy","name":"Al Zaitona"}},
    {"type":"Feature","geometry":{"type":"Point","coordinates":[34.9714463,31.4073635]},"properties":{"osm_id":"431923101","code":2101,"fclass":"pharmacy","name":"صيدلية تيم"}},
    {"type":"Feature","geometry":{"type":"Point","coordinates":[35.3030433,32.226353]},"properties":{"osm_id":"431923237","code":2101,"fclass":"pharmacy","name":"صيدلية اماندا"}},
    {"type":"Feature","geometry":{"type":"Point","coordinates":[35.2528757,32.2210613]},"properties":{"osm_id":"431927304","code":2101,"fclass":"pharmacy","name":"Al Masri"}},
    {"type":"Feature","geometry":{"type":"Point","coordinates":[35.2693226,32.2175719]},"properties":{"osm_id":"431935516","code":2101,"fclass":"pharmacy","name":"Abeer"}},
    {"type":"Feature","geometry":{"type":"Point","coordinates":[35.2567632,32.2292033]},"properties":{"osm_id":"431937595","code":2101,"fclass":"pharmacy","name":"صيدلية المها"}},
    {"type":"Feature","geometry":{"type":"Point","coordinates":[35.2496759,32.1793279]},"properties":{"osm_id":"431938150","code":2101,"fclass":"pharmacy","name":"Bourin"}},
    {"type":"Feature","geometry":{"type":"Point","coordinates":[35.1053469,31.5261956]},"properties":{"osm_id":"431938233","code":2101,"fclass":"pharmacy","name":"Al Shallalah"}},
    {"type":"Feature","geometry":{"type":"Point","coordinates":[35.2436554,32.2376753]},"properties":{"osm_id":"431941611","code":2101,"fclass":"pharmacy","name":"Al Amier"}},
    {"type":"Feature","geometry":{"type":"Point","coordinates":[35.2383943,32.2212705]},"properties":{"osm_id":"431943687","code":2101,"fclass":"pharmacy","name":"Rafedia"}},
    {"type":"Feature","geometry":{"type":"Point","coordinates":[35.2314923,32.2210595]},"properties":{"osm_id":"431945002","code":2101,"fclass":"pharmacy","name":"Al Shakhsher"}},
    {"type":"Feature","geometry":{"type":"Point","coordinates":[35.3277145,32.0872945]},"properties":{"osm_id":"431951035","code":2101,"fclass":"pharmacy","name":"Qusrah"}},
    {"type":"Feature","geometry":{"type":"Point","coordinates":[35.3461552,32.1269326]},"properties":{"osm_id":"431955476","code":2101,"fclass":"pharmacy","name":"Hassan"}},
    {"type":"Feature","geometry":{"type":"Point","coordinates":[35.2599845,32.2168171]},"properties":{"osm_id":"431955801","code":2101,"fclass":"pharmacy","name":"Ras Alain"}},
    {"type":"Feature","geometry":{"type":"Point","coordinates":[35.1634831,31.5159296]},"properties":{"osm_id":"431956485","code":2101,"fclass":"pharmacy","name":"صيدلية خليل الرحمن"}},
    {"type":"Feature","geometry":{"type":"Point","coordinates":[35.0902545,31.5142743]},"properties":{"osm_id":"431956650","code":2101,"fclass":"pharmacy","name":"Ghernata"}},
    {"type":"Feature","geometry":{"type":"Point","coordinates":[35.2569566,32.2156356]},"properties":{"osm_id":"431964362","code":2101,"fclass":"pharmacy","name":"Al Zahra'"}},
    {"type":"Feature","geometry":{"type":"Point","coordinates":[34.9491795,31.5086593]},"properties":{"osm_id":"431966068","code":2101,"fclass":"pharmacy","name":"Zainah Pharmacy"}},
    {"type":"Feature","geometry":{"type":"Point","coordinates":[35.2572975,32.2287198]},"properties":{"osm_id":"431967941","code":2101,"fclass":"pharmacy","name":"Al Itihad Pharmacy"}},
    {"type":"Feature","geometry":{"type":"Point","coordinates":[35.2731688,32.2188001]},"properties":{"osm_id":"431970468","code":2101,"fclass":"pharmacy","name":"Fadi"}},
    {"type":"Feature","geometry":{"type":"Point","coordinates":[35.1041053,31.5474362]},"properties":{"osm_id":"431970595","code":2101,"fclass":"pharmacy","name":"Al-Medina Almonwra"}},
    {"type":"Feature","geometry":{"type":"Point","coordinates":[35.2128725,32.238526]},"properties":{"osm_id":"431972689","code":2101,"fclass":"pharmacy","name":"Bait Iba"}},
    {"type":"Feature","geometry":{"type":"Point","coordinates":[35.2669576,32.218522]},"properties":{"osm_id":"431976389","code":2101,"fclass":"pharmacy","name":"صيدلية حواء"}},
    {"type":"Feature","geometry":{"type":"Point","coordinates":[35.2626237,32.2220767]},"properties":{"osm_id":"431981177","code":2101,"fclass":"pharmacy","name":"Omar"}},
    {"type":"Feature","geometry":{"type":"Point","coordinates":[35.2581494,32.1495726]},"properties":{"osm_id":"431983333","code":2101,"fclass":"pharmacy","name":"Holy Land"}},
    {"type":"Feature","geometry":{"type":"Point","coordinates":[35.3359302,32.1777503]},"properties":{"osm_id":"431986017","code":2101,"fclass":"pharmacy","name":"Al Manar"}},
    {"type":"Feature","geometry":{"type":"Point","coordinates":[35.0976603,31.4516135]},"properties":{"osm_id":"431988433","code":2101,"fclass":"pharmacy","name":"Al-Yamamah Pharmacy"}},
    {"type":"Feature","geometry":{"type":"Point","coordinates":[35.0364712,31.6087592]},"properties":{"osm_id":"431991323","code":2101,"fclass":"pharmacy","name":"Sahar Pharmacy"}},
    {"type":"Feature","geometry":{"type":"Point","coordinates":[35.1021032,31.5273496]},"properties":{"osm_id":"431995176","code":2101,"fclass":"pharmacy","name":"Al Omeh Pharmacy"}},
    {"type":"Feature","geometry":{"type":"Point","coordinates":[34.9700712,31.4069338]},"properties":{"osm_id":"431998428","code":2101,"fclass":"pharmacy","name":"Raed Pharmacy"}},
    {"type":"Feature","geometry":{"type":"Point","coordinates":[35.0048699,31.4716964]},"properties":{"osm_id":"432000716","code":2101,"fclass":"pharmacy","name":"Al Batol Pharmacy"}},
    {"type":"Feature","geometry":{"type":"Point","coordinates":[35.0801994,31.5294144]},"properties":{"osm_id":"432001008","code":2101,"fclass":"pharmacy","name":"Khabab Pharmacy"}},
    {"type":"Feature","geometry":{"type":"Point","coordinates":[35.2932126,32.0859746]},"properties":{"osm_id":"432002451","code":2101,"fclass":"pharmacy","name":"Talfit"}},
    {"type":"Feature","geometry":{"type":"Point","coordinates":[35.2716798,32.2146155]},"properties":{"osm_id":"432004724","code":2101,"fclass":"pharmacy","name":""}},
    {"type":"Feature","geometry":{"type":"Point","coordinates":[35.2864698,32.162307]},"properties":{"osm_id":"432005128","code":2101,"fclass":"pharmacy","name":"Awarta"}},
    {"type":"Feature","geometry":{"type":"Point","coordinates":[35.0906075,31.4496921]},"properties":{"osm_id":"432006720","code":2101,"fclass":"pharmacy","name":"Yatta Modern Pharmacy"}},
    {"type":"Feature","geometry":{"type":"Point","coordinates":[35.3355399,32.1763089]},"properties":{"osm_id":"432046159","code":2101,"fclass":"pharmacy","name":"Al Toryak"}},
    {"type":"Feature","geometry":{"type":"Point","coordinates":[35.2313375,32.2249043]},"properties":{"osm_id":"432047335","code":2101,"fclass":"pharmacy","name":"Ibn Al Nafis"}},
    {"type":"Feature","geometry":{"type":"Point","coordinates":[35.0940874,31.4512779]},"properties":{"osm_id":"432054158","code":2101,"fclass":"pharmacy","name":"Al-Nour Pharmacy"}},
    {"type":"Feature","geometry":{"type":"Point","coordinates":[35.2838194,32.2077823]},"properties":{"osm_id":"432054557","code":2101,"fclass":"pharmacy","name":"صيدلية"}},
    {"type":"Feature","geometry":{"type":"Point","coordinates":[34.9505624,31.5073019]},"properties":{"osm_id":"432062986","code":2101,"fclass":"pharmacy","name":"Al-Sakhrah Pharmacy"}},
    {"type":"Feature","geometry":{"type":"Point","coordinates":[35.2824143,32.2106731]},"properties":{"osm_id":"432063158","code":2101,"fclass":"pharmacy","name":"صيدلية ساهر"}},
    {"type":"Feature","geometry":{"type":"Point","coordinates":[35.2720008,32.2178844]},"properties":{"osm_id":"432063402","code":2101,"fclass":"pharmacy","name":"صيدلية قادري"}},
    {"type":"Feature","geometry":{"type":"Point","coordinates":[35.2434858,32.2192816]},"properties":{"osm_id":"432065448","code":2101,"fclass":"pharmacy","name":"Al Nabulsi"}},
    {"type":"Feature","geometry":{"type":"Point","coordinates":[35.3346973,32.0854295]},"properties":{"osm_id":"432069118","code":2101,"fclass":"pharmacy","name":"Qusrah"}},
    {"type":"Feature","geometry":{"type":"Point","coordinates":[35.24552,32.2254215]},"properties":{"osm_id":"432073463","code":2101,"fclass":"pharmacy","name":"Samir"}},
    {"type":"Feature","geometry":{"type":"Point","coordinates":[35.0917356,31.45057]},"properties":{"osm_id":"432081006","code":2101,"fclass":"pharmacy","name":"Al-Kinde Pharmacy"}},
    {"type":"Feature","geometry":{"type":"Point","coordinates":[35.2869495,32.1033541]},"properties":{"osm_id":"432082128","code":2101,"fclass":"pharmacy","name":"Qabalan"}},
    {"type":"Feature","geometry":{"type":"Point","coordinates":[35.2700844,32.2166031]},"properties":{"osm_id":"432083390","code":2101,"fclass":"pharmacy","name":"Arafat"}},
    {"type":"Feature","geometry":{"type":"Point","coordinates":[34.9757352,31.4103892]},"properties":{"osm_id":"432084546","code":2101,"fclass":"pharmacy","name":"Palestine Pharmacy"}},
    {"type":"Feature","geometry":{"type":"Point","coordinates":[35.2367911,32.2191774]},"properties":{"osm_id":"432084904","code":2101,"fclass":"pharmacy","name":"Al Makhfiyah"}},
    {"type":"Feature","geometry":{"type":"Point","coordinates":[35.1913044,32.2099842]},"properties":{"osm_id":"432086911","code":2101,"fclass":"pharmacy","name":"Al Hilal"}},
    {"type":"Feature","geometry":{"type":"Point","coordinates":[35.27917,32.2109894]},"properties":{"osm_id":"432092238","code":2101,"fclass":"pharmacy","name":"Al Dahia"}},
    {"type":"Feature","geometry":{"type":"Point","coordinates":[35.1641871,31.5174784]},"properties":{"osm_id":"432095072","code":2101,"fclass":"pharmacy","name":"صيدلية الأمانة"}},
    {"type":"Feature","geometry":{"type":"Point","coordinates":[35.1439176,31.5779885]},"properties":{"osm_id":"432113469","code":2101,"fclass":"pharmacy","name":"Al Amal Pharmacy"}},
    {"type":"Feature","geometry":{"type":"Point","coordinates":[35.2147814,32.1350529]},"properties":{"osm_id":"432114610","code":2101,"fclass":"pharmacy","name":"Jamain"}},
    {"type":"Feature","geometry":{"type":"Point","coordinates":[35.2616395,32.2222007]},"properties":{"osm_id":"432115123","code":2101,"fclass":"pharmacy","name":"Osama"}},
    {"type":"Feature","geometry":{"type":"Point","coordinates":[35.0705231,31.5694074]},"properties":{"osm_id":"432115302","code":2101,"fclass":"pharmacy","name":"صيدلية لبنى"}},
    {"type":"Feature","geometry":{"type":"Point","coordinates":[35.281589,32.1413152]},"properties":{"osm_id":"432120742","code":2101,"fclass":"pharmacy","name":"Bait Al Maqdis"}},
    {"type":"Feature","geometry":{"type":"Point","coordinates":[35.3451482,32.1263357]},"properties":{"osm_id":"432127024","code":2101,"fclass":"pharmacy","name":"Aqraba"}},
    {"type":"Feature","geometry":{"type":"Point","coordinates":[34.9752538,31.4100181]},"properties":{"osm_id":"432127371","code":2101,"fclass":"pharmacy","name":"Alshefa Pharmacy"}},
    {"type":"Feature","geometry":{"type":"Point","coordinates":[35.2588448,32.1522163]},"properties":{"osm_id":"432129443","code":2101,"fclass":"pharmacy","name":"Hawwarah"}},
    {"type":"Feature","geometry":{"type":"Point","coordinates":[35.2740043,32.2157181]},"properties":{"osm_id":"432132006","code":2101,"fclass":"pharmacy","name":"Al Saraya Pharmacy"}},
    {"type":"Feature","geometry":{"type":"Point","coordinates":[35.1166639,31.459401]},"properties":{"osm_id":"432135268","code":2101,"fclass":"pharmacy","name":"Al-Razi Pharmacy"}},
    {"type":"Feature","geometry":{"type":"Point","coordinates":[35.2249053,32.1577714]},"properties":{"osm_id":"432135272","code":2101,"fclass":"pharmacy","name":"Orif"}},
    {"type":"Feature","geometry":{"type":"Point","coordinates":[35.2588477,32.224663]},"properties":{"osm_id":"432137163","code":2101,"fclass":"pharmacy","name":"Ghazi Pharmacy"}},
    {"type":"Feature","geometry":{"type":"Point","coordinates":[35.293013,32.2177575]},"properties":{"osm_id":"432138954","code":2101,"fclass":"pharmacy","name":"Al Mostkbl"}},
    {"type":"Feature","geometry":{"type":"Point","coordinates":[35.2682093,32.2513251]},"properties":{"osm_id":"432147461","code":2101,"fclass":"pharmacy","name":"Asirah"}},
    {"type":"Feature","geometry":{"type":"Point","coordinates":[35.2836921,32.103825]},"properties":{"osm_id":"432150316","code":2101,"fclass":"pharmacy","name":"Mahmoud"}},
    {"type":"Feature","geometry":{"type":"Point","coordinates":[35.2670849,32.2179482]},"properties":{"osm_id":"432151180","code":2101,"fclass":"pharmacy","name":"صيدلية نابلس"}},
    {"type":"Feature","geometry":{"type":"Point","coordinates":[35.1023241,31.5567791]},"properties":{"osm_id":"432153750","code":2101,"fclass":"pharmacy","name":"صيدلية الميزان"}},
    {"type":"Feature","geometry":{"type":"Point","coordinates":[35.2827245,32.1414295]},"properties":{"osm_id":"432160947","code":2101,"fclass":"pharmacy","name":"Beita"}},
    {"type":"Feature","geometry":{"type":"Point","coordinates":[35.0855934,31.4460192]},"properties":{"osm_id":"432163844","code":2101,"fclass":"pharmacy","name":"صيدلية لانا"}},
    {"type":"Feature","geometry":{"type":"Point","coordinates":[35.2466422,32.220833]},"properties":{"osm_id":"432164716","code":2101,"fclass":"pharmacy","name":"صيدلية الجامعه"}},
    {"type":"Feature","geometry":{"type":"Point","coordinates":[35.2369157,32.2216023]},"properties":{"osm_id":"432173619","code":2101,"fclass":"pharmacy","name":"Firas"}},
    {"type":"Feature","geometry":{"type":"Point","coordinates":[35.2179795,32.2932414]},"properties":{"osm_id":"432173823","code":2101,"fclass":"pharmacy","name":"Al Taqwa"}},
    {"type":"Feature","geometry":{"type":"Point","coordinates":[35.2110698,32.1333329]},"properties":{"osm_id":"432176993","code":2101,"fclass":"pharmacy","name":"Al Andalus"}},
    {"type":"Feature","geometry":{"type":"Point","coordinates":[35.1002293,31.4526457]},"properties":{"osm_id":"432181809","code":2101,"fclass":"pharmacy","name":"Osama Pharmacy"}},
    {"type":"Feature","geometry":{"type":"Point","coordinates":[35.2451916,32.2244652]},"properties":{"osm_id":"432185284","code":2101,"fclass":"pharmacy","name":"Tabark Pharmacy"}},
    {"type":"Feature","geometry":{"type":"Point","coordinates":[35.3306942,32.2091193]},"properties":{"osm_id":"432186034","code":2101,"fclass":"pharmacy","name":"Family"}},
    {"type":"Feature","geometry":{"type":"Point","coordinates":[35.1637992,31.5174149]},"properties":{"osm_id":"432198753","code":2101,"fclass":"pharmacy","name":"صيدلية دار الدواء"}},
    {"type":"Feature","geometry":{"type":"Point","coordinates":[35.149593,31.5775593]},"properties":{"osm_id":"432201583","code":2101,"fclass":"pharmacy","name":"Palestine Pharmacy"}},
    {"type":"Feature","geometry":{"type":"Point","coordinates":[35.0882522,31.4484702]},"properties":{"osm_id":"432205657","code":2101,"fclass":"pharmacy","name":"Al-Sakhra Pharmacy"}},
    {"type":"Feature","geometry":{"type":"Point","coordinates":[35.025023,31.5977298]},"properties":{"osm_id":"432211111","code":2101,"fclass":"pharmacy","name":"Abu Azmi Pharamcy"}},
    {"type":"Feature","geometry":{"type":"Point","coordinates":[35.0688832,31.396897]},"properties":{"osm_id":"432219286","code":2101,"fclass":"pharmacy","name":"صيدلية الصفا"}},
    {"type":"Feature","geometry":{"type":"Point","coordinates":[35.0661568,31.6506403]},"properties":{"osm_id":"432219292","code":2101,"fclass":"pharmacy","name":"Surif Pharmacy"}},
    {"type":"Feature","geometry":{"type":"Point","coordinates":[35.1029502,31.5409983]},"properties":{"osm_id":"432221173","code":2101,"fclass":"pharmacy","name":"صيدلية الايمان"}},
    {"type":"Feature","geometry":{"type":"Point","coordinates":[35.0670206,31.3978289]},"properties":{"osm_id":"432224055","code":2101,"fclass":"pharmacy","name":"Al Okhwa Pharmacy"}},
    {"type":"Feature","geometry":{"type":"Point","coordinates":[35.0341096,31.5057618]},"properties":{"osm_id":"432227156","code":2101,"fclass":"pharmacy","name":"صيدلية الاسرة"}},
    {"type":"Feature","geometry":{"type":"Point","coordinates":[35.0927439,31.451095]},"properties":{"osm_id":"432240288","code":2101,"fclass":"pharmacy","name":"Ayman Pharmacy"}},
    {"type":"Feature","geometry":{"type":"Point","coordinates":[35.0866001,31.4446394]},"properties":{"osm_id":"432247499","code":2101,"fclass":"pharmacy","name":"صيدلية البراء"}},
    {"type":"Feature","geometry":{"type":"Point","coordinates":[35.1018664,31.5539675]},"properties":{"osm_id":"432255838","code":2101,"fclass":"pharmacy","name":"صيدلية الراية"}},
    {"type":"Feature","geometry":{"type":"Point","coordinates":[35.0679076,31.6488353]},"properties":{"osm_id":"432255865","code":2101,"fclass":"pharmacy","name":"Rama Pharmacy"}},
    {"type":"Feature","geometry":{"type":"Point","coordinates":[35.2070711,31.9060831]},"properties":{"osm_id":"432260505","code":2101,"fclass":"pharmacy","name":"Shadi Pharmacy"}},
    {"type":"Feature","geometry":{"type":"Point","coordinates":[35.2629736,31.7616507]},"properties":{"osm_id":"432261226","code":2101,"fclass":"pharmacy","name":"Abudees"}},
    {"type":"Feature","geometry":{"type":"Point","coordinates":[35.2131415,31.8846956]},"properties":{"osm_id":"432261443","code":2101,"fclass":"pharmacy","name":"Al Bayan Pharmacy"}},
    {"type":"Feature","geometry":{"type":"Point","coordinates":[35.2055403,31.903409]},"properties":{"osm_id":"432261752","code":2101,"fclass":"pharmacy","name":"Almadinah Pharmacy"}},
    {"type":"Feature","geometry":{"type":"Point","coordinates":[35.1936247,31.9667014]},"properties":{"osm_id":"432261845","code":2101,"fclass":"pharmacy","name":"صيدلية لانا"}},
    {"type":"Feature","geometry":{"type":"Point","coordinates":[35.0678766,32.0160228]},"properties":{"osm_id":"432261848","code":2101,"fclass":"pharmacy","name":"صيدلة عابود"}},
    {"type":"Feature","geometry":{"type":"Point","coordinates":[35.2543785,31.8088312]},"properties":{"osm_id":"432261954","code":2101,"fclass":"pharmacy","name":"صيدلية السلام"}},
    {"type":"Feature","geometry":{"type":"Point","coordinates":[35.2604217,31.9739663]},"properties":{"osm_id":"432262231","code":2101,"fclass":"pharmacy","name":"Al Rahma"}},
    {"type":"Feature","geometry":{"type":"Point","coordinates":[35.2026419,31.9090037]},"properties":{"osm_id":"432262278","code":2101,"fclass":"pharmacy","name":"Al Petar Pharmacy"}},
    {"type":"Feature","geometry":{"type":"Point","coordinates":[35.2150802,31.920469]},"properties":{"osm_id":"432262597","code":2101,"fclass":"pharmacy","name":"Noor Pharmacy"}},
    {"type":"Feature","geometry":{"type":"Point","coordinates":[35.2131671,31.8859554]},"properties":{"osm_id":"432262743","code":2101,"fclass":"pharmacy","name":"Mu'ath Pharmacy"}},
    {"type":"Feature","geometry":{"type":"Point","coordinates":[35.0999087,31.9666004]},"properties":{"osm_id":"432262770","code":2101,"fclass":"pharmacy","name":"Mahmood Pharmacy"}},
    {"type":"Feature","geometry":{"type":"Point","coordinates":[35.2020375,31.9043985]},"properties":{"osm_id":"432262867","code":2101,"fclass":"pharmacy","name":"Selwad Pharmacy"}},
    {"type":"Feature","geometry":{"type":"Point","coordinates":[35.2140934,31.9076504]},"properties":{"osm_id":"432263403","code":2101,"fclass":"pharmacy","name":"Al memi Pharmacy"}},
    {"type":"Feature","geometry":{"type":"Point","coordinates":[35.1991618,31.9045555]},"properties":{"osm_id":"432263634","code":2101,"fclass":"pharmacy","name":"Kratem Pharmacy"}},
    {"type":"Feature","geometry":{"type":"Point","coordinates":[35.211851,31.8954142]},"properties":{"osm_id":"432263842","code":2101,"fclass":"pharmacy","name":"Al-Amari Pharmacy"}},
    {"type":"Feature","geometry":{"type":"Point","coordinates":[35.251512,31.9477598]},"properties":{"osm_id":"432264097","code":2101,"fclass":"pharmacy","name":"Al Amal"}},
    {"type":"Feature","geometry":{"type":"Point","coordinates":[35.0990863,31.9243049]},"properties":{"osm_id":"432264730","code":2101,"fclass":"pharmacy","name":"Sarah Ker Pharmacy"}},
    {"type":"Feature","geometry":{"type":"Point","coordinates":[35.1984975,32.0316981]},"properties":{"osm_id":"432265232","code":2101,"fclass":"pharmacy","name":"Alnoor Pharmacy"}},
    {"type":"Feature","geometry":{"type":"Point","coordinates":[35.1971378,31.9045875]},"properties":{"osm_id":"432266426","code":2101,"fclass":"pharmacy","name":"Ramallah Pharmacy"}},
    {"type":"Feature","geometry":{"type":"Point","coordinates":[35.3087284,31.9905061]},"properties":{"osm_id":"432266553","code":2101,"fclass":"pharmacy","name":"Kufor Malak"}},
    {"type":"Feature","geometry":{"type":"Point","coordinates":[35.1690853,31.8926364]},"properties":{"osm_id":"432266689","code":2101,"fclass":"pharmacy","name":"Firas Pharmacy"}},
    {"type":"Feature","geometry":{"type":"Point","coordinates":[35.208361,31.9015587]},"properties":{"osm_id":"432267373","code":2101,"fclass":"pharmacy","name":"Alquds Pharmacy"}},
    {"type":"Feature","geometry":{"type":"Point","coordinates":[35.2110287,31.9065257]},"properties":{"osm_id":"432267583","code":2101,"fclass":"pharmacy","name":"Al Helal Pharmacy"}},
    {"type":"Feature","geometry":{"type":"Point","coordinates":[35.206014,31.9195117]},"properties":{"osm_id":"432267619","code":2101,"fclass":"pharmacy","name":"Almahdi Pharmacy"}},
    {"type":"Feature","geometry":{"type":"Point","coordinates":[35.2090776,31.9262749]},"properties":{"osm_id":"432267719","code":2101,"fclass":"pharmacy","name":"Majd pharmacy"}},
    {"type":"Feature","geometry":{"type":"Point","coordinates":[35.1763015,31.8994106]},"properties":{"osm_id":"432267925","code":2101,"fclass":"pharmacy","name":"Ebn Senah Pharmacy"}},
    {"type":"Feature","geometry":{"type":"Point","coordinates":[35.2188191,31.8880574]},"properties":{"osm_id":"432267989","code":2101,"fclass":"pharmacy","name":"Al Eman pharmacy"}},
    {"type":"Feature","geometry":{"type":"Point","coordinates":[35.2560104,31.765703]},"properties":{"osm_id":"432268151","code":2101,"fclass":"pharmacy","name":"Harbi"}},
    {"type":"Feature","geometry":{"type":"Point","coordinates":[35.2002591,31.8514644]},"properties":{"osm_id":"432268599","code":2101,"fclass":"pharmacy","name":"Al Noor"}},
    {"type":"Feature","geometry":{"type":"Point","coordinates":[35.2140172,31.949462]},"properties":{"osm_id":"432268791","code":2101,"fclass":"pharmacy","name":"Al Buraq"}},
    {"type":"Feature","geometry":{"type":"Point","coordinates":[35.2070988,31.9050037]},"properties":{"osm_id":"432269285","code":2101,"fclass":"pharmacy","name":"Al Daleyah Pharmacy"}},
    {"type":"Feature","geometry":{"type":"Point","coordinates":[35.2073692,31.9202425]},"properties":{"osm_id":"432269601","code":2101,"fclass":"pharmacy","name":"Tawfiq Pharmacy"}},
    {"type":"Feature","geometry":{"type":"Point","coordinates":[35.2057961,31.9068171]},"properties":{"osm_id":"432269620","code":2101,"fclass":"pharmacy","name":"Abu Ghazaleh Pharmacy"}},
    {"type":"Feature","geometry":{"type":"Point","coordinates":[35.1455239,31.8336933]},"properties":{"osm_id":"432270553","code":2101,"fclass":"pharmacy","name":"Beddu New Pharmacy"}},
    {"type":"Feature","geometry":{"type":"Point","coordinates":[35.2048897,31.9021023]},"properties":{"osm_id":"432270686","code":2101,"fclass":"pharmacy","name":"Alaqsa Pharmacy"}},
    {"type":"Feature","geometry":{"type":"Point","coordinates":[35.2673821,31.9105161]},"properties":{"osm_id":"432271726","code":2101,"fclass":"pharmacy","name":"Dair Dibwan"}},
    {"type":"Feature","geometry":{"type":"Point","coordinates":[35.2001799,31.9051458]},"properties":{"osm_id":"432271975","code":2101,"fclass":"pharmacy","name":"Al Bargothi Pharmacy"}},
    {"type":"Feature","geometry":{"type":"Point","coordinates":[35.2123725,31.8983545]},"properties":{"osm_id":"432273041","code":2101,"fclass":"pharmacy","name":"Al-Shurafa Pharmacy"}},
    {"type":"Feature","geometry":{"type":"Point","coordinates":[35.1891942,31.8983161]},"properties":{"osm_id":"432273508","code":2101,"fclass":"pharmacy","name":"Al Awa'el Pharmacy"}},
    {"type":"Feature","geometry":{"type":"Point","coordinates":[35.2127446,31.8960847]},"properties":{"osm_id":"432273529","code":2101,"fclass":"pharmacy","name":"Alfaiha' Pharmacy"}},
    {"type":"Feature","geometry":{"type":"Point","coordinates":[35.2698021,31.9125414]},"properties":{"osm_id":"432273817","code":2101,"fclass":"pharmacy","name":"Al Samah"}},
    {"type":"Feature","geometry":{"type":"Point","coordinates":[35.0655457,31.8691513]},"properties":{"osm_id":"432274550","code":2101,"fclass":"pharmacy","name":"Alesra'"}},
    {"type":"Feature","geometry":{"type":"Point","coordinates":[35.1993352,31.9005357]},"properties":{"osm_id":"432277079","code":2101,"fclass":"pharmacy","name":"Almasyon Pharmacy"}},
    {"type":"Feature","geometry":{"type":"Point","coordinates":[35.2033419,31.8507624]},"properties":{"osm_id":"432278156","code":2101,"fclass":"pharmacy","name":"Dar Al Shifa'"}},
    {"type":"Feature","geometry":{"type":"Point","coordinates":[35.1761118,31.9573724]},"properties":{"osm_id":"432278230","code":2101,"fclass":"pharmacy","name":"Baha' Pharmacy"}},
    {"type":"Feature","geometry":{"type":"Point","coordinates":[35.0731371,31.8857516]},"properties":{"osm_id":"432278274","code":2101,"fclass":"pharmacy","name":"Alrahma"}},
    {"type":"Feature","geometry":{"type":"Point","coordinates":[35.281231,32.0030963]},"properties":{"osm_id":"432278364","code":2101,"fclass":"pharmacy","name":"Al Mazra'ah"}},
    {"type":"Feature","geometry":{"type":"Point","coordinates":[35.2589084,31.7634738]},"properties":{"osm_id":"432278403","code":2101,"fclass":"pharmacy","name":"Al Ekhwah"}},
    {"type":"Feature","geometry":{"type":"Point","coordinates":[35.204231,31.9042422]},"properties":{"osm_id":"432279466","code":2101,"fclass":"pharmacy","name":"Al Sa'ed Pharmacy"}},
    {"type":"Feature","geometry":{"type":"Point","coordinates":[35.2162194,31.9116618]},"properties":{"osm_id":"432279764","code":2101,"fclass":"pharmacy","name":"Al-Islam Pharmacy"}},
    {"type":"Feature","geometry":{"type":"Point","coordinates":[35.1445128,31.8345133]},"properties":{"osm_id":"432280008","code":2101,"fclass":"pharmacy","name":"Imad"}},
    {"type":"Feature","geometry":{"type":"Point","coordinates":[35.1704524,31.8972268]},"properties":{"osm_id":"432280601","code":2101,"fclass":"pharmacy","name":"صيدلية بيتونيا"}},
    {"type":"Feature","geometry":{"type":"Point","coordinates":[35.1782961,32.03981]},"properties":{"osm_id":"432280914","code":2101,"fclass":"pharmacy","name":"Shereen Pharmacy"}},
    {"type":"Feature","geometry":{"type":"Point","coordinates":[35.2075411,31.8864479]},"properties":{"osm_id":"432281012","code":2101,"fclass":"pharmacy","name":"صيدلية الزهراء"}},
    {"type":"Feature","geometry":{"type":"Point","coordinates":[35.2931863,31.9658083]},"properties":{"osm_id":"432281616","code":2101,"fclass":"pharmacy","name":"Dair Jreer"}},
    {"type":"Feature","geometry":{"type":"Point","coordinates":[35.1247776,31.8376246]},"properties":{"osm_id":"432281778","code":2101,"fclass":"pharmacy","name":"Dia' Al Dien"}},
    {"type":"Feature","geometry":{"type":"Point","coordinates":[35.2128268,31.9034996]},"properties":{"osm_id":"432282713","code":2101,"fclass":"pharmacy","name":"Ziena Pharmacy"}},
    {"type":"Feature","geometry":{"type":"Point","coordinates":[35.2079113,31.9033421]},"properties":{"osm_id":"432283050","code":2101,"fclass":"pharmacy","name":"Rana Pharmacy"}},
    {"type":"Feature","geometry":{"type":"Point","coordinates":[35.2056084,31.9000442]},"properties":{"osm_id":"432283613","code":2101,"fclass":"pharmacy","name":"Sana' Pharmacy"}},
    {"type":"Feature","geometry":{"type":"Point","coordinates":[35.2550259,31.7695902]},"properties":{"osm_id":"432284066","code":2101,"fclass":"pharmacy","name":"صيدلية العيزرية"}},
    {"type":"Feature","geometry":{"type":"Point","coordinates":[35.1436854,31.8353406]},"properties":{"osm_id":"432284357","code":2101,"fclass":"pharmacy","name":"Al Anwar"}},
    {"type":"Feature","geometry":{"type":"Point","coordinates":[35.178841,31.8978992]},"properties":{"osm_id":"432284430","code":2101,"fclass":"pharmacy","name":"Dar El Dawa' Pharmacy"}},
    {"type":"Feature","geometry":{"type":"Point","coordinates":[35.0391483,31.9871166]},"properties":{"osm_id":"432284434","code":2101,"fclass":"pharmacy","name":"Shaqba Pharmacy"}},
    {"type":"Feature","geometry":{"type":"Point","coordinates":[35.2035668,31.9067469]},"properties":{"osm_id":"432284538","code":2101,"fclass":"pharmacy","name":"Salah Al Deen Pharmacy"}},
    {"type":"Feature","geometry":{"type":"Point","coordinates":[35.210776,31.8982296]},"properties":{"osm_id":"432284618","code":2101,"fclass":"pharmacy","name":"صيدلية الشرفة"}},
    {"type":"Feature","geometry":{"type":"Point","coordinates":[35.1829312,31.9181736]},"properties":{"osm_id":"432284709","code":2101,"fclass":"pharmacy","name":"صيدلية عبير"}},
    {"type":"Feature","geometry":{"type":"Point","coordinates":[35.1837016,31.8527984]},"properties":{"osm_id":"432285578","code":2101,"fclass":"pharmacy","name":"Al Kamal Pharmacy"}},
    {"type":"Feature","geometry":{"type":"Point","coordinates":[35.1975311,31.8522094]},"properties":{"osm_id":"432286786","code":2101,"fclass":"pharmacy","name":"Royal"}},
    {"type":"Feature","geometry":{"type":"Point","coordinates":[35.0602806,31.9061466]},"properties":{"osm_id":"432286831","code":2101,"fclass":"pharmacy","name":"Saffa Pharmacy"}},
    {"type":"Feature","geometry":{"type":"Point","coordinates":[35.1741217,31.9018931]},"properties":{"osm_id":"432286836","code":2101,"fclass":"pharmacy","name":"صيدلية ميديسال"}},
    {"type":"Feature","geometry":{"type":"Point","coordinates":[35.1591413,31.9887819]},"properties":{"osm_id":"432287866","code":2101,"fclass":"pharmacy","name":"Cobar"}},
    {"type":"Feature","geometry":{"type":"Point","coordinates":[35.285088,32.0369244]},"properties":{"osm_id":"432288178","code":2101,"fclass":"pharmacy","name":"Waleed Pharmacy"}},
    {"type":"Feature","geometry":{"type":"Point","coordinates":[35.2154327,31.9064167]},"properties":{"osm_id":"432288218","code":2101,"fclass":"pharmacy","name":"Alsalam Pharmacy"}},
    {"type":"Feature","geometry":{"type":"Point","coordinates":[35.1160527,31.849327]},"properties":{"osm_id":"432288259","code":2101,"fclass":"pharmacy","name":"Bait Anan"}},
    {"type":"Feature","geometry":{"type":"Point","coordinates":[35.2988408,31.9333814]},"properties":{"osm_id":"432288436","code":2101,"fclass":"pharmacy","name":"Ramon"}},
    {"type":"Feature","geometry":{"type":"Point","coordinates":[35.2067838,31.9154102]},"properties":{"osm_id":"432288828","code":2101,"fclass":"pharmacy","name":"صيدلية مطرية 2"}},
    {"type":"Feature","geometry":{"type":"Point","coordinates":[35.1422292,31.9064449]},"properties":{"osm_id":"432288900","code":2101,"fclass":"pharmacy","name":"Amjad"}},
    {"type":"Feature","geometry":{"type":"Point","coordinates":[35.2140913,31.9047804]},"properties":{"osm_id":"432289179","code":2101,"fclass":"pharmacy","name":"Al-Bireh Grand Pharmacy"}},
    {"type":"Feature","geometry":{"type":"Point","coordinates":[35.204071,31.9034115]},"properties":{"osm_id":"432289727","code":2101,"fclass":"pharmacy","name":"Al Wafa' Pharmacy"}},
    {"type":"Feature","geometry":{"type":"Point","coordinates":[35.3015546,32.0140461]},"properties":{"osm_id":"432289801","code":2101,"fclass":"pharmacy","name":"Abu Falah"}},
    {"type":"Feature","geometry":{"type":"Point","coordinates":[35.1681182,31.8901249]},"properties":{"osm_id":"432290168","code":2101,"fclass":"pharmacy","name":"Alrazi Pharmacy"}},
    {"type":"Feature","geometry":{"type":"Point","coordinates":[35.214455,31.9086067]},"properties":{"osm_id":"432290496","code":2101,"fclass":"pharmacy","name":"Nidal Care Pharmacy"}},
    {"type":"Feature","geometry":{"type":"Point","coordinates":[35.214482,31.9066589]},"properties":{"osm_id":"432290908","code":2101,"fclass":"pharmacy","name":"Alosrah Pharmacy"}},
    {"type":"Feature","geometry":{"type":"Point","coordinates":[35.1696744,31.8951887]},"properties":{"osm_id":"432291041","code":2101,"fclass":"pharmacy","name":"AlAmal Pharmacy"}},
    {"type":"Feature","geometry":{"type":"Point","coordinates":[35.0230094,31.9454522]},"properties":{"osm_id":"432291534","code":2101,"fclass":"pharmacy","name":"Ne'leen Pharmacy"}},
    {"type":"Feature","geometry":{"type":"Point","coordinates":[35.0843934,31.8951162]},"properties":{"osm_id":"432292692","code":2101,"fclass":"pharmacy","name":"Bait Owr Altahta"}},
    {"type":"Feature","geometry":{"type":"Point","coordinates":[35.2051671,31.9059519]},"properties":{"osm_id":"432293570","code":2101,"fclass":"pharmacy","name":"Syam Pharmacy"}},
    {"type":"Feature","geometry":{"type":"Point","coordinates":[35.0668937,31.8680746]},"properties":{"osm_id":"432293676","code":2101,"fclass":"pharmacy","name":"Virona"}},
    {"type":"Feature","geometry":{"type":"Point","coordinates":[35.1453677,31.8355737]},"properties":{"osm_id":"432294657","code":2101,"fclass":"pharmacy","name":"Al Musaqbal"}},
    {"type":"Feature","geometry":{"type":"Point","coordinates":[35.2076495,31.9042762]},"properties":{"osm_id":"432294805","code":2101,"fclass":"pharmacy","name":"Al Manar Pharmacy"}},
    {"type":"Feature","geometry":{"type":"Point","coordinates":[35.263727,32.0335238]},"properties":{"osm_id":"432295573","code":2101,"fclass":"pharmacy","name":"Alta'awon Pharmacy"}},
    {"type":"Feature","geometry":{"type":"Point","coordinates":[35.2984566,31.9568039]},"properties":{"osm_id":"432295584","code":2101,"fclass":"pharmacy","name":"Al Teba Pharmacy"}},
    {"type":"Feature","geometry":{"type":"Point","coordinates":[35.1942812,31.9057251]},"properties":{"osm_id":"432295601","code":2101,"fclass":"pharmacy","name":"Asem Pharmacy"}},
    {"type":"Feature","geometry":{"type":"Point","coordinates":[35.2006641,31.9039189]},"properties":{"osm_id":"432295797","code":2101,"fclass":"pharmacy","name":"صيدلية الشعب"}},
    {"type":"Feature","geometry":{"type":"Point","coordinates":[35.1962316,31.9713382]},"properties":{"osm_id":"432296064","code":2101,"fclass":"pharmacy","name":"Marwan"}},
    {"type":"Feature","geometry":{"type":"Point","coordinates":[35.0583739,32.1771287]},"properties":{"osm_id":"432298368","code":2101,"fclass":"pharmacy","name":"'Azzun"}},
    {"type":"Feature","geometry":{"type":"Point","coordinates":[34.9804574,32.1635746]},"properties":{"osm_id":"432305383","code":2101,"fclass":"pharmacy","name":"Al Hayah Al Jadeda"}},
    {"type":"Feature","geometry":{"type":"Point","coordinates":[34.978892,32.1648341]},"properties":{"osm_id":"432305476","code":2101,"fclass":"pharmacy","name":"Habla Pharmacy"}},
    {"type":"Feature","geometry":{"type":"Point","coordinates":[35.0465542,32.1519444]},"properties":{"osm_id":"432306572","code":2101,"fclass":"pharmacy","name":"Al-Amanah Pharmacy"}},
    {"type":"Feature","geometry":{"type":"Point","coordinates":[35.1322112,32.2025746]},"properties":{"osm_id":"432308377","code":2101,"fclass":"pharmacy","name":"Al Haramin"}},
    {"type":"Feature","geometry":{"type":"Point","coordinates":[35.0568362,32.1793358]},"properties":{"osm_id":"432310858","code":2101,"fclass":"pharmacy","name":""}},
    {"type":"Feature","geometry":{"type":"Point","coordinates":[34.9786424,32.1651286]},"properties":{"osm_id":"432314512","code":2101,"fclass":"pharmacy","name":"Hablah"}},
    {"type":"Feature","geometry":{"type":"Point","coordinates":[35.1267685,32.2064573]},"properties":{"osm_id":"432314657","code":2101,"fclass":"pharmacy","name":"Mazin"}},
    {"type":"Feature","geometry":{"type":"Point","coordinates":[34.9808184,32.1633186]},"properties":{"osm_id":"432317837","code":2101,"fclass":"pharmacy","name":"New Life Pharmacy"}},
    {"type":"Feature","geometry":{"type":"Point","coordinates":[34.9772407,32.1657539]},"properties":{"osm_id":"432318073","code":2101,"fclass":"pharmacy","name":"Al Ayman"}},
    {"type":"Feature","geometry":{"type":"Point","coordinates":[35.0593447,32.1766318]},"properties":{"osm_id":"432319949","code":2101,"fclass":"pharmacy","name":"Jehhad"}},
    {"type":"Feature","geometry":{"type":"Point","coordinates":[35.0395326,32.2004447]},"properties":{"osm_id":"432327132","code":2101,"fclass":"pharmacy","name":"'Assan Pharmacy"}},
    {"type":"Feature","geometry":{"type":"Point","coordinates":[35.0580914,32.1785788]},"properties":{"osm_id":"432330704","code":2101,"fclass":"pharmacy","name":""}},
    {"type":"Feature","geometry":{"type":"Point","coordinates":[35.1359934,32.1894879]},"properties":{"osm_id":"432333866","code":2101,"fclass":"pharmacy","name":"Lo'ai"}},
    {"type":"Feature","geometry":{"type":"Point","coordinates":[34.9682162,32.191664]},"properties":{"osm_id":"432334714","code":2101,"fclass":"pharmacy","name":"Al-Esra' Pharmacy"}},
    {"type":"Feature","geometry":{"type":"Point","coordinates":[34.9671102,32.1927416]},"properties":{"osm_id":"432334738","code":2101,"fclass":"pharmacy","name":"Al-Wafa' Pharmacy"}},
    {"type":"Feature","geometry":{"type":"Point","coordinates":[34.9718477,32.1880512]},"properties":{"osm_id":"432334749","code":2101,"fclass":"pharmacy","name":"Dalal Pharmacy"}},
    {"type":"Feature","geometry":{"type":"Point","coordinates":[34.9628834,32.190585]},"properties":{"osm_id":"432334766","code":2101,"fclass":"pharmacy","name":"Amjad Pharmacy"}},
    {"type":"Feature","geometry":{"type":"Point","coordinates":[34.9642484,32.1858874]},"properties":{"osm_id":"432334791","code":2101,"fclass":"pharmacy","name":"Al-Ameid Pharmacy"}},
    {"type":"Feature","geometry":{"type":"Point","coordinates":[34.9651497,32.1882992]},"properties":{"osm_id":"432334797","code":2101,"fclass":"pharmacy","name":"Al-Shefa' Pharmacy"}},
    {"type":"Feature","geometry":{"type":"Point","coordinates":[34.9653139,32.1892654]},"properties":{"osm_id":"432334798","code":2101,"fclass":"pharmacy","name":"صيدلية السلام - قلقيلية"}},
    {"type":"Feature","geometry":{"type":"Point","coordinates":[34.9741728,32.1898705]},"properties":{"osm_id":"432334819","code":2101,"fclass":"pharmacy","name":"Firas Pharmacy"}},
    {"type":"Feature","geometry":{"type":"Point","coordinates":[35.4609681,31.8561264]},"properties":{"osm_id":"432335732","code":2101,"fclass":"pharmacy","name":"صيدلية اريحا الكبرى"}},
    {"type":"Feature","geometry":{"type":"Point","coordinates":[35.4590624,31.8574588]},"properties":{"osm_id":"432335753","code":2101,"fclass":"pharmacy","name":"Al Majroh"}},
    {"type":"Feature","geometry":{"type":"Point","coordinates":[35.4578028,31.8551943]},"properties":{"osm_id":"432336576","code":2101,"fclass":"pharmacy","name":"Aljihad"}},
    {"type":"Feature","geometry":{"type":"Point","coordinates":[35.4592311,31.8557434]},"properties":{"osm_id":"432337008","code":2101,"fclass":"pharmacy","name":"الصطافي"}},
    {"type":"Feature","geometry":{"type":"Point","coordinates":[35.4665294,31.8609592]},"properties":{"osm_id":"432338611","code":2101,"fclass":"pharmacy","name":"Bali Pharmacy"}},
    {"type":"Feature","geometry":{"type":"Point","coordinates":[35.4580956,31.8579082]},"properties":{"osm_id":"432341740","code":2101,"fclass":"pharmacy","name":"صيدلية حجازي"}},
    {"type":"Feature","geometry":{"type":"Point","coordinates":[35.1882514,32.0835276]},"properties":{"osm_id":"432345887","code":2101,"fclass":"pharmacy","name":"Al Hikmah"}},
    {"type":"Feature","geometry":{"type":"Point","coordinates":[35.0440715,32.0980909]},"properties":{"osm_id":"432348544","code":2101,"fclass":"pharmacy","name":"Al Zawia"}},
    {"type":"Feature","geometry":{"type":"Point","coordinates":[35.1397651,32.1135518]},"properties":{"osm_id":"432349373","code":2101,"fclass":"pharmacy","name":"Dar Al Dawa'"}},
    {"type":"Feature","geometry":{"type":"Point","coordinates":[35.1387991,32.1303423]},"properties":{"osm_id":"432350647","code":2101,"fclass":"pharmacy","name":"Al Jaziera"}},
    {"type":"Feature","geometry":{"type":"Point","coordinates":[35.0773284,32.1142498]},"properties":{"osm_id":"432350701","code":2101,"fclass":"pharmacy","name":"Al Abrar"}},
    {"type":"Feature","geometry":{"type":"Point","coordinates":[35.1813757,32.0828158]},"properties":{"osm_id":"432350885","code":2101,"fclass":"pharmacy","name":"Salfit"}},
    {"type":"Feature","geometry":{"type":"Point","coordinates":[35.1005075,32.1194205]},"properties":{"osm_id":"432350895","code":2101,"fclass":"pharmacy","name":"Qarawat Bani Hassan"}},
    {"type":"Feature","geometry":{"type":"Point","coordinates":[35.1798259,32.0825295]},"properties":{"osm_id":"432351916","code":2101,"fclass":"pharmacy","name":"Al Waled"}},
    {"type":"Feature","geometry":{"type":"Point","coordinates":[35.0810357,32.0667302]},"properties":{"osm_id":"432352002","code":2101,"fclass":"pharmacy","name":"Kafr Al Deek"}},
    {"type":"Feature","geometry":{"type":"Point","coordinates":[35.0803717,32.1147714]},"properties":{"osm_id":"432352448","code":2101,"fclass":"pharmacy","name":"Albara'"}},
    {"type":"Feature","geometry":{"type":"Point","coordinates":[35.138305,32.132527]},"properties":{"osm_id":"432352469","code":2101,"fclass":"pharmacy","name":"Raghda"}},
    {"type":"Feature","geometry":{"type":"Point","coordinates":[35.0867735,32.1135402]},"properties":{"osm_id":"432352694","code":2101,"fclass":"pharmacy","name":"Al Nour"}},
    {"type":"Feature","geometry":{"type":"Point","coordinates":[35.0836034,32.1143803]},"properties":{"osm_id":"432354220","code":2101,"fclass":"pharmacy","name":"Al Aqsa"}},
    {"type":"Feature","geometry":{"type":"Point","coordinates":[35.0330617,32.3119696]},"properties":{"osm_id":"432355226","code":2101,"fclass":"pharmacy","name":"Aliah"}},
    {"type":"Feature","geometry":{"type":"Point","coordinates":[35.0255105,32.0657902]},"properties":{"osm_id":"432360810","code":2101,"fclass":"pharmacy","name":"Dair All Balout"}},
    {"type":"Feature","geometry":{"type":"Point","coordinates":[35.028609,32.3120692]},"properties":{"osm_id":"432365874","code":2101,"fclass":"pharmacy","name":"الدكتور احمد راميني | اسنان"}},
    {"type":"Feature","geometry":{"type":"Point","coordinates":[35.0297804,32.3028826]},"properties":{"osm_id":"432366245","code":2101,"fclass":"pharmacy","name":"صيدلية الرحمة"}},
    {"type":"Feature","geometry":{"type":"Point","coordinates":[35.0344196,32.3362048]},"properties":{"osm_id":"432366864","code":2101,"fclass":"pharmacy","name":"Shwaikah"}},
    {"type":"Feature","geometry":{"type":"Point","coordinates":[35.0307494,32.3163412]},"properties":{"osm_id":"432366977","code":2101,"fclass":"pharmacy","name":"صيدلية فواز الجديدة"}},
    {"type":"Feature","geometry":{"type":"Point","coordinates":[35.1141979,32.3070091]},"properties":{"osm_id":"432368208","code":2101,"fclass":"pharmacy","name":"Al Osrah"}},
    {"type":"Feature","geometry":{"type":"Point","coordinates":[35.030941,32.3154312]},"properties":{"osm_id":"432368315","code":2101,"fclass":"pharmacy","name":"مركز الشهد لعلاج وتجميل البشرة"}},
    {"type":"Feature","geometry":{"type":"Point","coordinates":[35.0365494,32.3129203]},"properties":{"osm_id":"432368464","code":2101,"fclass":"pharmacy","name":"Al Sahil"}},
    {"type":"Feature","geometry":{"type":"Point","coordinates":[35.0517086,32.3860657]},"properties":{"osm_id":"432371445","code":2101,"fclass":"pharmacy","name":"Zita New Pharmacy"}},
    {"type":"Feature","geometry":{"type":"Point","coordinates":[35.0283129,32.3071712]},"properties":{"osm_id":"432374035","code":2101,"fclass":"pharmacy","name":"Waseem"}},
    {"type":"Feature","geometry":{"type":"Point","coordinates":[35.0281362,32.3136253]},"properties":{"osm_id":"432374266","code":2101,"fclass":"pharmacy","name":"صيدلية ابو نصرة"}},
    {"type":"Feature","geometry":{"type":"Point","coordinates":[35.0335423,32.3140654]},"properties":{"osm_id":"432375546","code":2101,"fclass":"pharmacy","name":"Tariq"}},
    {"type":"Feature","geometry":{"type":"Point","coordinates":[35.0335666,32.3130883]},"properties":{"osm_id":"432378164","code":2101,"fclass":"pharmacy","name":"Al Mokhayam"}},
    {"type":"Feature","geometry":{"type":"Point","coordinates":[35.0369456,32.3029516]},"properties":{"osm_id":"432379752","code":2101,"fclass":"pharmacy","name":"Majd"}},
    {"type":"Feature","geometry":{"type":"Point","coordinates":[35.1088713,32.3326595]},"properties":{"osm_id":"432379812","code":2101,"fclass":"pharmacy","name":"Al Isra'"}},
    {"type":"Feature","geometry":{"type":"Point","coordinates":[35.047166,32.2248275]},"properties":{"osm_id":"432379952","code":2101,"fclass":"pharmacy","name":"Al Kafriat"}},
    {"type":"Feature","geometry":{"type":"Point","coordinates":[35.0845871,32.4322578]},"properties":{"osm_id":"432384059","code":2101,"fclass":"pharmacy","name":"Qufeen"}},
    {"type":"Feature","geometry":{"type":"Point","coordinates":[35.0728547,32.3685069]},"properties":{"osm_id":"432384297","code":2101,"fclass":"pharmacy","name":"Attil"}},
    {"type":"Feature","geometry":{"type":"Point","coordinates":[35.0227578,32.2861353]},"properties":{"osm_id":"432384357","code":2101,"fclass":"pharmacy","name":"Faroun"}},
    {"type":"Feature","geometry":{"type":"Point","coordinates":[35.0292781,32.3052193]},"properties":{"osm_id":"432387443","code":2101,"fclass":"pharmacy","name":"صيدلية فارمسي وان"}},
    {"type":"Feature","geometry":{"type":"Point","coordinates":[35.0697338,32.3691162]},"properties":{"osm_id":"432387477","code":2101,"fclass":"pharmacy","name":"Al Mustafa"}},
    {"type":"Feature","geometry":{"type":"Point","coordinates":[35.0596306,32.4134405]},"properties":{"osm_id":"432388919","code":2101,"fclass":"pharmacy","name":"Khalifa"}},
    {"type":"Feature","geometry":{"type":"Point","coordinates":[35.020062,32.2980299]},"properties":{"osm_id":"432389246","code":2101,"fclass":"pharmacy","name":"Artah"}},
    {"type":"Feature","geometry":{"type":"Point","coordinates":[35.02773,32.3134032]},"properties":{"osm_id":"432390990","code":2101,"fclass":"pharmacy","name":"صيدلية الشعب"}},
    {"type":"Feature","geometry":{"type":"Point","coordinates":[35.0608406,32.3190419]},"properties":{"osm_id":"432392146","code":2101,"fclass":"pharmacy","name":"Khalid Al Jadidah"}},
    {"type":"Feature","geometry":{"type":"Point","coordinates":[35.1176161,32.3061376]},"properties":{"osm_id":"432392776","code":2101,"fclass":"pharmacy","name":"Anabta Al Jadeda"}},
    {"type":"Feature","geometry":{"type":"Point","coordinates":[35.0296608,32.3122502]},"properties":{"osm_id":"432393289","code":2101,"fclass":"pharmacy","name":"مختبر المدينة|دليل طولكرم الطبي"}},
    {"type":"Feature","geometry":{"type":"Point","coordinates":[35.1062406,32.3707034]},"properties":{"osm_id":"432393710","code":2101,"fclass":"pharmacy","name":"الرحمة2"}},
    {"type":"Feature","geometry":{"type":"Point","coordinates":[35.0772488,32.3525377]},"properties":{"osm_id":"432394142","code":2101,"fclass":"pharmacy","name":"Al Salam"}},
    {"type":"Feature","geometry":{"type":"Point","coordinates":[35.1145642,32.3085712]},"properties":{"osm_id":"432395025","code":2101,"fclass":"pharmacy","name":"Al Mas'ool"}},
    {"type":"Feature","geometry":{"type":"Point","coordinates":[35.07815,32.3533687]},"properties":{"osm_id":"432396459","code":2101,"fclass":"pharmacy","name":"Khalid"}},
    {"type":"Feature","geometry":{"type":"Point","coordinates":[35.0754679,32.3522491]},"properties":{"osm_id":"432398088","code":2101,"fclass":"pharmacy","name":"Ghanim"}},
    {"type":"Feature","geometry":{"type":"Point","coordinates":[35.0293429,32.3146288]},"properties":{"osm_id":"432399687","code":2101,"fclass":"pharmacy","name":"جراحة تجميل"}},
    {"type":"Feature","geometry":{"type":"Point","coordinates":[35.0275849,32.3120949]},"properties":{"osm_id":"432401954","code":2101,"fclass":"pharmacy","name":"صيدلية عوني |دليل طولكرم الطبي"}},
    {"type":"Feature","geometry":{"type":"Point","coordinates":[35.0292525,32.3144422]},"properties":{"osm_id":"432402266","code":2101,"fclass":"pharmacy","name":"Tulkarm Trade Chamber"}},
    {"type":"Feature","geometry":{"type":"Point","coordinates":[35.0311147,32.3090838]},"properties":{"osm_id":"432404720","code":2101,"fclass":"pharmacy","name":"Al Yousif"}},
    {"type":"Feature","geometry":{"type":"Point","coordinates":[35.1322644,32.2602111]},"properties":{"osm_id":"432407329","code":2101,"fclass":"pharmacy","name":"Al Huda"}},
    {"type":"Feature","geometry":{"type":"Point","coordinates":[35.1068683,32.3709892]},"properties":{"osm_id":"432409296","code":2101,"fclass":"pharmacy","name":"Al Rahmeh Al Jdedah"}},
    {"type":"Feature","geometry":{"type":"Point","coordinates":[35.0693903,32.3710671]},"properties":{"osm_id":"432411278","code":2101,"fclass":"pharmacy","name":"Al Salam"}},
    {"type":"Feature","geometry":{"type":"Point","coordinates":[35.0816159,32.4334991]},"properties":{"osm_id":"432412250","code":2101,"fclass":"pharmacy","name":"Firas"}},
    {"type":"Feature","geometry":{"type":"Point","coordinates":[35.1078677,32.3710952]},"properties":{"osm_id":"432412471","code":2101,"fclass":"pharmacy","name":"Palestine"}},
    {"type":"Feature","geometry":{"type":"Point","coordinates":[35.0721387,32.3709819]},"properties":{"osm_id":"432422004","code":2101,"fclass":"pharmacy","name":"Ibn Rushd"}},
    {"type":"Feature","geometry":{"type":"Point","coordinates":[35.0709714,32.4102586]},"properties":{"osm_id":"432422778","code":2101,"fclass":"pharmacy","name":"Shadi"}},
    {"type":"Feature","geometry":{"type":"Point","coordinates":[35.0717131,32.4110133]},"properties":{"osm_id":"432422992","code":2101,"fclass":"pharmacy","name":"Hamodah"}},
    {"type":"Feature","geometry":{"type":"Point","coordinates":[35.0281554,32.3121328]},"properties":{"osm_id":"432424226","code":2101,"fclass":"pharmacy","name":"صيدلية المدينة | دليل طولكرم الطبي"}},
    {"type":"Feature","geometry":{"type":"Point","coordinates":[35.0300395,32.3139774]},"properties":{"osm_id":"432530474","code":2101,"fclass":"pharmacy","name":"Al Safarini"}},
    {"type":"Feature","geometry":{"type":"Point","coordinates":[35.0708063,32.3670808]},"properties":{"osm_id":"432532247","code":2101,"fclass":"pharmacy","name":"صيدلية السلام"}},
    {"type":"Feature","geometry":{"type":"Point","coordinates":[35.0178387,32.2968109]},"properties":{"osm_id":"432534273","code":2101,"fclass":"pharmacy","name":"Baghdad"}},
    {"type":"Feature","geometry":{"type":"Point","coordinates":[35.0330036,32.3107174]},"properties":{"osm_id":"432536376","code":2101,"fclass":"pharmacy","name":"Akrum"}},
    {"type":"Feature","geometry":{"type":"Point","coordinates":[35.0293067,32.3193902]},"properties":{"osm_id":"432536491","code":2101,"fclass":"pharmacy","name":"Amjad"}},
    {"type":"Feature","geometry":{"type":"Point","coordinates":[35.0366892,32.3040162]},"properties":{"osm_id":"432538076","code":2101,"fclass":"pharmacy","name":"Ibn Sina"}},
    {"type":"Feature","geometry":{"type":"Point","coordinates":[35.0763282,32.3533031]},"properties":{"osm_id":"432539941","code":2101,"fclass":"pharmacy","name":"Nadim"}},
    {"type":"Feature","geometry":{"type":"Point","coordinates":[35.3994049,32.4906907]},"properties":{"osm_id":"432544841","code":2101,"fclass":"pharmacy","name":"Faqqu'a Pharmacy"}},
    {"type":"Feature","geometry":{"type":"Point","coordinates":[35.2810669,32.4100335]},"properties":{"osm_id":"432544887","code":2101,"fclass":"pharmacy","name":"Alra'fa Pharmacy"}},
    {"type":"Feature","geometry":{"type":"Point","coordinates":[35.2333898,32.487008]},"properties":{"osm_id":"432544990","code":2101,"fclass":"pharmacy","name":"Ezat Pharmacy"}},
    {"type":"Feature","geometry":{"type":"Point","coordinates":[35.259289,32.4551114]},"properties":{"osm_id":"432545023","code":2101,"fclass":"pharmacy","name":"Borken Pharmacy"}},
    {"type":"Feature","geometry":{"type":"Point","coordinates":[35.3248108,32.3852935]},"properties":{"osm_id":"432545068","code":2101,"fclass":"pharmacy","name":"صيدلية الزبابدة"}},
    {"type":"Feature","geometry":{"type":"Point","coordinates":[35.3126857,32.4640437]},"properties":{"osm_id":"432545094","code":2101,"fclass":"pharmacy","name":"Sara Pharmacy"}},
    {"type":"Feature","geometry":{"type":"Point","coordinates":[35.297282,32.4654756]},"properties":{"osm_id":"432545124","code":2101,"fclass":"pharmacy","name":"Feras Pharmacy"}},
    {"type":"Feature","geometry":{"type":"Point","coordinates":[35.3208853,32.927493]},"properties":{"osm_id":"442370135","code":2101,"fclass":"pharmacy","name":"סופר-פארם"}},
    {"type":"Feature","geometry":{"type":"Point","coordinates":[34.8614048,32.2764128]},"properties":{"osm_id":"450189441","code":2101,"fclass":"pharmacy","name":"סופר-פארם"}},
    {"type":"Feature","geometry":{"type":"Point","coordinates":[34.8592076,32.3310938]},"properties":{"osm_id":"474377077","code":2101,"fclass":"pharmacy","name":"סופר-פארם"}},
    {"type":"Feature","geometry":{"type":"Point","coordinates":[34.8593569,32.332916]},"properties":{"osm_id":"474377151","code":2101,"fclass":"pharmacy","name":"בימר\"ק הנשיא"}},
    {"type":"Feature","geometry":{"type":"Point","coordinates":[34.4984929,31.5315641]},"properties":{"osm_id":"503991711","code":2101,"fclass":"pharmacy","name":"Stanbool Pharmacy"}},
    {"type":"Feature","geometry":{"type":"Point","coordinates":[34.4690637,31.543117]},"properties":{"osm_id":"503991846","code":2101,"fclass":"pharmacy","name":"Msallam Pharmacy"}},
    {"type":"Feature","geometry":{"type":"Point","coordinates":[34.4942948,31.5338569]},"properties":{"osm_id":"503993237","code":2101,"fclass":"pharmacy","name":"Janin Pharmacy"}},
    {"type":"Feature","geometry":{"type":"Point","coordinates":[34.5091058,31.5395122]},"properties":{"osm_id":"503994811","code":2101,"fclass":"pharmacy","name":"Al Sheikh Zayed Pharmacy"}},
    {"type":"Feature","geometry":{"type":"Point","coordinates":[34.4952753,31.5323025]},"properties":{"osm_id":"503994900","code":2101,"fclass":"pharmacy","name":"El Balsam Pharmacy"}},
    {"type":"Feature","geometry":{"type":"Point","coordinates":[34.5190407,31.5452985]},"properties":{"osm_id":"503995008","code":2101,"fclass":"pharmacy","name":"Al Awda Pharmacy"}},
    {"type":"Feature","geometry":{"type":"Point","coordinates":[34.4995753,31.5336917]},"properties":{"osm_id":"503995370","code":2101,"fclass":"pharmacy","name":"Al Noor Pharmacy"}},
    {"type":"Feature","geometry":{"type":"Point","coordinates":[34.4922821,31.5200047]},"properties":{"osm_id":"503997170","code":2101,"fclass":"pharmacy","name":"Basher El Kaer"}},
    {"type":"Feature","geometry":{"type":"Point","coordinates":[34.4840937,31.5262895]},"properties":{"osm_id":"503998372","code":2101,"fclass":"pharmacy","name":"El Haramen Pharmacy"}},
    {"type":"Feature","geometry":{"type":"Point","coordinates":[34.4891836,31.5248223]},"properties":{"osm_id":"504000300","code":2101,"fclass":"pharmacy","name":"Al-Quds Pharmacy"}},
    {"type":"Feature","geometry":{"type":"Point","coordinates":[34.4998532,31.5403651]},"properties":{"osm_id":"504001165","code":2101,"fclass":"pharmacy","name":"Al Amal Pharmacy"}},
    {"type":"Feature","geometry":{"type":"Point","coordinates":[34.4938689,31.5232204]},"properties":{"osm_id":"504001384","code":2101,"fclass":"pharmacy","name":"Aymen Pharmacy"}},
    {"type":"Feature","geometry":{"type":"Point","coordinates":[34.4839813,31.5248615]},"properties":{"osm_id":"504001451","code":2101,"fclass":"pharmacy","name":"ِِAl Karama Pharmacy"}},
    {"type":"Feature","geometry":{"type":"Point","coordinates":[34.4840259,31.5275648]},"properties":{"osm_id":"504002641","code":2101,"fclass":"pharmacy","name":"Naser Pharmacy"}},
    {"type":"Feature","geometry":{"type":"Point","coordinates":[34.5054168,31.5411974]},"properties":{"osm_id":"504003183","code":2101,"fclass":"pharmacy","name":"Salamatak Pharmacy"}},
    {"type":"Feature","geometry":{"type":"Point","coordinates":[34.5099477,31.5401402]},"properties":{"osm_id":"504003607","code":2101,"fclass":"pharmacy","name":"Al Madina Pharmacy"}},
    {"type":"Feature","geometry":{"type":"Point","coordinates":[34.5021746,31.529076]},"properties":{"osm_id":"504003898","code":2101,"fclass":"pharmacy","name":"Al Asraa Pharmacy"}},
    {"type":"Feature","geometry":{"type":"Point","coordinates":[34.4980614,31.5318876]},"properties":{"osm_id":"504005483","code":2101,"fclass":"pharmacy","name":"El Sakra Pharmacy"}},
    {"type":"Feature","geometry":{"type":"Point","coordinates":[34.529422,31.5373068]},"properties":{"osm_id":"504005895","code":2101,"fclass":"pharmacy","name":"El Zaytoon Pharmacy"}},
    {"type":"Feature","geometry":{"type":"Point","coordinates":[34.4947846,31.5316273]},"properties":{"osm_id":"504006582","code":2101,"fclass":"pharmacy","name":"El Ryiad Pharmacy"}},
    {"type":"Feature","geometry":{"type":"Point","coordinates":[34.4958811,31.5351307]},"properties":{"osm_id":"504006673","code":2101,"fclass":"pharmacy","name":"Nabil Pharmacy"}},
    {"type":"Feature","geometry":{"type":"Point","coordinates":[34.5390934,31.538989]},"properties":{"osm_id":"504006969","code":2101,"fclass":"pharmacy","name":"The Life Pharmacy"}},
    {"type":"Feature","geometry":{"type":"Point","coordinates":[34.5006981,31.5336017]},"properties":{"osm_id":"504007311","code":2101,"fclass":"pharmacy","name":"El Kolfa Pharmacy"}},
    {"type":"Feature","geometry":{"type":"Point","coordinates":[34.4933621,31.530104]},"properties":{"osm_id":"504008614","code":2101,"fclass":"pharmacy","name":"صيدليه محمد على"}},
    {"type":"Feature","geometry":{"type":"Point","coordinates":[34.4599925,31.5345069]},"properties":{"osm_id":"504252923","code":2101,"fclass":"pharmacy","name":"Al-Salama Pharmacy"}},
    {"type":"Feature","geometry":{"type":"Point","coordinates":[34.4543994,31.4927623]},"properties":{"osm_id":"504253403","code":2101,"fclass":"pharmacy","name":"صيدلية أجنادين"}},
    {"type":"Feature","geometry":{"type":"Point","coordinates":[34.4507192,31.5309368]},"properties":{"osm_id":"504254413","code":2101,"fclass":"pharmacy","name":"صيدلية شركة الزنط"}},
    {"type":"Feature","geometry":{"type":"Point","coordinates":[34.4473391,31.4948788]},"properties":{"osm_id":"504254484","code":2101,"fclass":"pharmacy","name":"صيدلية مشعل"}},
    {"type":"Feature","geometry":{"type":"Point","coordinates":[34.4745903,31.5297383]},"properties":{"osm_id":"504255171","code":2101,"fclass":"pharmacy","name":"A'arandas Pharmacy"}},
    {"type":"Feature","geometry":{"type":"Point","coordinates":[34.4702674,31.5319604]},"properties":{"osm_id":"504255254","code":2101,"fclass":"pharmacy","name":"Mqaat Pharmacy"}},
    {"type":"Feature","geometry":{"type":"Point","coordinates":[34.4683785,31.5366387]},"properties":{"osm_id":"504256353","code":2101,"fclass":"pharmacy","name":"Berlin Pharmacy"}},
    {"type":"Feature","geometry":{"type":"Point","coordinates":[34.4418978,31.5312671]},"properties":{"osm_id":"504260700","code":2101,"fclass":"pharmacy","name":"صيدلية طالب"}},
    {"type":"Feature","geometry":{"type":"Point","coordinates":[34.4691951,31.5245009]},"properties":{"osm_id":"504261069","code":2101,"fclass":"pharmacy","name":"Mqaat Pharmacy"}},
    {"type":"Feature","geometry":{"type":"Point","coordinates":[34.4604773,31.5070177]},"properties":{"osm_id":"504261079","code":2101,"fclass":"pharmacy","name":"Adel Pharmacy"}},
    {"type":"Feature","geometry":{"type":"Point","coordinates":[34.4479171,31.5310182]},"properties":{"osm_id":"504264306","code":2101,"fclass":"pharmacy","name":"صيدلية الأندلس-غزة"}},
    {"type":"Feature","geometry":{"type":"Point","coordinates":[34.4655078,31.4971306]},"properties":{"osm_id":"504268782","code":2101,"fclass":"pharmacy","name":"Al-Qarashally Pharmacy"}},
    {"type":"Feature","geometry":{"type":"Point","coordinates":[34.4516974,31.5273983]},"properties":{"osm_id":"504269537","code":2101,"fclass":"pharmacy","name":"صيدلية الصفا-غزة"}},
    {"type":"Feature","geometry":{"type":"Point","coordinates":[34.4567116,31.5195797]},"properties":{"osm_id":"504270117","code":2101,"fclass":"pharmacy","name":"صيدلية المدهون-غزة"}},
    {"type":"Feature","geometry":{"type":"Point","coordinates":[34.4680061,31.5309682]},"properties":{"osm_id":"504274434","code":2101,"fclass":"pharmacy","name":"Al-Awda Pharmacy"}},
    {"type":"Feature","geometry":{"type":"Point","coordinates":[34.4623324,31.5059813]},"properties":{"osm_id":"504274983","code":2101,"fclass":"pharmacy","name":"Al Nasser Pharmacy"}},
    {"type":"Feature","geometry":{"type":"Point","coordinates":[34.4418757,31.5103736]},"properties":{"osm_id":"504280918","code":2101,"fclass":"pharmacy","name":"Dr. Majed Pharmacy"}},
    {"type":"Feature","geometry":{"type":"Point","coordinates":[34.4469166,31.5173735]},"properties":{"osm_id":"504282471","code":2101,"fclass":"pharmacy","name":"Dubai Pharmacy"}},
    {"type":"Feature","geometry":{"type":"Point","coordinates":[34.443984,31.530643]},"properties":{"osm_id":"504283140","code":2101,"fclass":"pharmacy","name":"صيدلية الشيماء-غزة"}},
    {"type":"Feature","geometry":{"type":"Point","coordinates":[34.4590748,31.5339805]},"properties":{"osm_id":"504284278","code":2101,"fclass":"pharmacy","name":"صيدلية برلين سوبر فارم-غزة"}},
    {"type":"Feature","geometry":{"type":"Point","coordinates":[34.4663088,31.5076993]},"properties":{"osm_id":"504285364","code":2101,"fclass":"pharmacy","name":"صيدلية السدرة-غزة"}},
    {"type":"Feature","geometry":{"type":"Point","coordinates":[34.4469858,31.5300518]},"properties":{"osm_id":"504286974","code":2101,"fclass":"pharmacy","name":"صيدلية الأهالي-غزة"}},
    {"type":"Feature","geometry":{"type":"Point","coordinates":[34.4866378,31.5205199]},"properties":{"osm_id":"504288434","code":2101,"fclass":"pharmacy","name":"Ayman Pharmacy"}},
    {"type":"Feature","geometry":{"type":"Point","coordinates":[34.4580718,31.5050219]},"properties":{"osm_id":"504289037","code":2101,"fclass":"pharmacy","name":"صيدلية ماهر عجور"}},
    {"type":"Feature","geometry":{"type":"Point","coordinates":[34.4712939,31.53184]},"properties":{"osm_id":"504290567","code":2101,"fclass":"pharmacy","name":"Ibn Al-Haytham Pharmacy"}},
    {"type":"Feature","geometry":{"type":"Point","coordinates":[34.4350617,31.5179186]},"properties":{"osm_id":"504293294","code":2101,"fclass":"pharmacy","name":"صيدلية أبو العنين"}},
    {"type":"Feature","geometry":{"type":"Point","coordinates":[34.4657967,31.5385991]},"properties":{"osm_id":"504294481","code":2101,"fclass":"pharmacy","name":"Al-Esteqlaal Pharmacy"}},
    {"type":"Feature","geometry":{"type":"Point","coordinates":[34.4521603,31.4899811]},"properties":{"osm_id":"504295242","code":2101,"fclass":"pharmacy","name":"صيدلية صلاح الدين"}},
    {"type":"Feature","geometry":{"type":"Point","coordinates":[34.4535704,31.5169358]},"properties":{"osm_id":"504299754","code":2101,"fclass":"pharmacy","name":"صيدلية التوفيق-غزة"}},
    {"type":"Feature","geometry":{"type":"Point","coordinates":[34.4609971,31.5355567]},"properties":{"osm_id":"504301734","code":2101,"fclass":"pharmacy","name":"Al-Naser Pharmacy"}},
    {"type":"Feature","geometry":{"type":"Point","coordinates":[34.4643855,31.5089359]},"properties":{"osm_id":"504302260","code":2101,"fclass":"pharmacy","name":"صيدلية الإيمان-غزة"}},
    {"type":"Feature","geometry":{"type":"Point","coordinates":[34.4751295,31.5001584]},"properties":{"osm_id":"504302268","code":2101,"fclass":"pharmacy","name":"Sanabel Pharmacy"}},
    {"type":"Feature","geometry":{"type":"Point","coordinates":[34.3505948,31.4149263]},"properties":{"osm_id":"505015729","code":2101,"fclass":"pharmacy","name":"Al-Majid"}},
    {"type":"Feature","geometry":{"type":"Point","coordinates":[34.4043285,31.4420906]},"properties":{"osm_id":"505017246","code":2101,"fclass":"pharmacy","name":"Assalama Pharmacy"}},
    {"type":"Feature","geometry":{"type":"Point","coordinates":[34.350792,31.417549]},"properties":{"osm_id":"505017601","code":2101,"fclass":"pharmacy","name":"Balsam Pharmacy"}},
    {"type":"Feature","geometry":{"type":"Point","coordinates":[34.3524479,31.4186318]},"properties":{"osm_id":"505018967","code":2101,"fclass":"pharmacy","name":"Dina Pharmacy"}},
    {"type":"Feature","geometry":{"type":"Point","coordinates":[34.3900321,31.4498459]},"properties":{"osm_id":"505019739","code":2101,"fclass":"pharmacy","name":"Al-Kholod Pharmacy"}},
    {"type":"Feature","geometry":{"type":"Point","coordinates":[34.4006234,31.4410988]},"properties":{"osm_id":"505020654","code":2101,"fclass":"pharmacy","name":"Al-Awda Pharmacy"}},
    {"type":"Feature","geometry":{"type":"Point","coordinates":[34.3868618,31.444729]},"properties":{"osm_id":"505022277","code":2101,"fclass":"pharmacy","name":"Jerusalem Pharmacy"}},
    {"type":"Feature","geometry":{"type":"Point","coordinates":[34.3375167,31.3698581]},"properties":{"osm_id":"505023167","code":2101,"fclass":"pharmacy","name":"Al-Jazeera Pharmacy"}},
    {"type":"Feature","geometry":{"type":"Point","coordinates":[34.3506984,31.4163053]},"properties":{"osm_id":"505025362","code":2101,"fclass":"pharmacy","name":"Tal Al-Arabia Pharmacy"}},
    {"type":"Feature","geometry":{"type":"Point","coordinates":[34.3482501,31.4177072]},"properties":{"osm_id":"505030227","code":2101,"fclass":"pharmacy","name":"Al-Taher Pharmacy"}},
    {"type":"Feature","geometry":{"type":"Point","coordinates":[34.349385,31.4182184]},"properties":{"osm_id":"505030489","code":2101,"fclass":"pharmacy","name":"Al-Markazia Pharmacy"}},
    {"type":"Feature","geometry":{"type":"Point","coordinates":[34.3473992,31.4104279]},"properties":{"osm_id":"505032646","code":2101,"fclass":"pharmacy","name":"Al Basheer Pharmacy"}},
    {"type":"Feature","geometry":{"type":"Point","coordinates":[34.3472174,31.4169147]},"properties":{"osm_id":"505033069","code":2101,"fclass":"pharmacy","name":"Al-Braa Pharmacy"}},
    {"type":"Feature","geometry":{"type":"Point","coordinates":[34.389483,31.4502906]},"properties":{"osm_id":"505035978","code":2101,"fclass":"pharmacy","name":"Al-Zaitona Pharmacy"}},
    {"type":"Feature","geometry":{"type":"Point","coordinates":[34.3499334,31.4189179]},"properties":{"osm_id":"505036743","code":2101,"fclass":"pharmacy","name":"Eman"}},
    {"type":"Feature","geometry":{"type":"Point","coordinates":[34.3627978,31.3909772]},"properties":{"osm_id":"505037486","code":2101,"fclass":"pharmacy","name":"Al Wadi Pharmacy"}},
    {"type":"Feature","geometry":{"type":"Point","coordinates":[34.4044551,31.4362586]},"properties":{"osm_id":"505038760","code":2101,"fclass":"pharmacy","name":"Mher Pharmacy"}},
    {"type":"Feature","geometry":{"type":"Point","coordinates":[34.351137,31.4194765]},"properties":{"osm_id":"505042386","code":2101,"fclass":"pharmacy","name":"Wessam Pharmacy"}},
    {"type":"Feature","geometry":{"type":"Point","coordinates":[34.390909,31.458666]},"properties":{"osm_id":"505043590","code":2101,"fclass":"pharmacy","name":"Al Karama Pharmacy"}},
    {"type":"Feature","geometry":{"type":"Point","coordinates":[34.3920597,31.4597262]},"properties":{"osm_id":"505044279","code":2101,"fclass":"pharmacy","name":"Aqsa Pharmacy"}},
    {"type":"Feature","geometry":{"type":"Point","coordinates":[34.2439882,31.2976996]},"properties":{"osm_id":"505087765","code":2101,"fclass":"pharmacy","name":"Elemam Pharmacy"}},
    {"type":"Feature","geometry":{"type":"Point","coordinates":[34.2892097,31.3501428]},"properties":{"osm_id":"505091858","code":2101,"fclass":"pharmacy","name":"Al Andalus Pharmacy"}},
    {"type":"Feature","geometry":{"type":"Point","coordinates":[34.303469,31.3439341]},"properties":{"osm_id":"505093194","code":2101,"fclass":"pharmacy","name":"Micheal Pharmacy"}},
    {"type":"Feature","geometry":{"type":"Point","coordinates":[34.3460617,31.3239924]},"properties":{"osm_id":"505093521","code":2101,"fclass":"pharmacy","name":"صيدلية صالح"}},
    {"type":"Feature","geometry":{"type":"Point","coordinates":[34.3483486,31.3243547]},"properties":{"osm_id":"505093557","code":2101,"fclass":"pharmacy","name":"صيدلية المنار"}},
    {"type":"Feature","geometry":{"type":"Point","coordinates":[34.3038755,31.3463202]},"properties":{"osm_id":"505093891","code":2101,"fclass":"pharmacy","name":"Al-Aqsa Pharmacy"}},
    {"type":"Feature","geometry":{"type":"Point","coordinates":[34.2642096,31.271669]},"properties":{"osm_id":"505094401","code":2101,"fclass":"pharmacy","name":"Al Junina Pharmacy"}},
    {"type":"Feature","geometry":{"type":"Point","coordinates":[34.3040767,31.3470881]},"properties":{"osm_id":"505094472","code":2101,"fclass":"pharmacy","name":"Al-Amal Pharmacy"}},
    {"type":"Feature","geometry":{"type":"Point","coordinates":[34.3010423,31.3451808]},"properties":{"osm_id":"505094762","code":2101,"fclass":"pharmacy","name":"صيدلية"}},
    {"type":"Feature","geometry":{"type":"Point","coordinates":[34.2450104,31.3095378]},"properties":{"osm_id":"505095722","code":2101,"fclass":"pharmacy","name":"Bader Pharmacy"}},
    {"type":"Feature","geometry":{"type":"Point","coordinates":[34.2922292,31.3521822]},"properties":{"osm_id":"505096883","code":2101,"fclass":"pharmacy","name":"El yazory"}},
    {"type":"Feature","geometry":{"type":"Point","coordinates":[34.2538111,31.28059]},"properties":{"osm_id":"505097790","code":2101,"fclass":"pharmacy","name":"صيدلية العودة"}},
    {"type":"Feature","geometry":{"type":"Point","coordinates":[34.3025632,31.3447038]},"properties":{"osm_id":"505100105","code":2101,"fclass":"pharmacy","name":""}},
    {"type":"Feature","geometry":{"type":"Point","coordinates":[34.2525778,31.2819693]},"properties":{"osm_id":"505100559","code":2101,"fclass":"pharmacy","name":"صيدلية الشفاء"}},
    {"type":"Feature","geometry":{"type":"Point","coordinates":[34.2553711,31.2735714]},"properties":{"osm_id":"505101507","code":2101,"fclass":"pharmacy","name":"Khaled Pharmacy"}},
    {"type":"Feature","geometry":{"type":"Point","coordinates":[34.2996538,31.3462236]},"properties":{"osm_id":"505102280","code":2101,"fclass":"pharmacy","name":"صيدلية فلسطين"}},
    {"type":"Feature","geometry":{"type":"Point","coordinates":[34.2984736,31.3478903]},"properties":{"osm_id":"505102306","code":2101,"fclass":"pharmacy","name":"Ab Foda Pharmacy"}},
    {"type":"Feature","geometry":{"type":"Point","coordinates":[34.2972859,31.3543268]},"properties":{"osm_id":"505104066","code":2101,"fclass":"pharmacy","name":"صيدلية البراء"}},
    {"type":"Feature","geometry":{"type":"Point","coordinates":[34.2429952,31.3101301]},"properties":{"osm_id":"505108654","code":2101,"fclass":"pharmacy","name":"Beirut Pharmacy"}},
    {"type":"Feature","geometry":{"type":"Point","coordinates":[34.2918684,31.3506603]},"properties":{"osm_id":"505110836","code":2101,"fclass":"pharmacy","name":"صيدلية اليازوري"}},
    {"type":"Feature","geometry":{"type":"Point","coordinates":[34.2550913,31.283692]},"properties":{"osm_id":"505116513","code":2101,"fclass":"pharmacy","name":"صيدلية اليرموك"}},
    {"type":"Feature","geometry":{"type":"Point","coordinates":[34.3079356,31.3384122]},"properties":{"osm_id":"505117303","code":2101,"fclass":"pharmacy","name":"Al Farapi Pharmacy"}},
    {"type":"Feature","geometry":{"type":"Point","coordinates":[34.3087278,31.3378633]},"properties":{"osm_id":"505118810","code":2101,"fclass":"pharmacy","name":"Daa' Aldawaa' Pharmacy"}},
    {"type":"Feature","geometry":{"type":"Point","coordinates":[34.326017,31.3428964]},"properties":{"osm_id":"505119715","code":2101,"fclass":"pharmacy","name":"Al Fajer Al Jadeed Pharmacy"}},
    {"type":"Feature","geometry":{"type":"Point","coordinates":[34.2504012,31.2844726]},"properties":{"osm_id":"505120198","code":2101,"fclass":"pharmacy","name":"Abu Hashem Pharmacy"}},
    {"type":"Feature","geometry":{"type":"Point","coordinates":[34.2435892,31.2965871]},"properties":{"osm_id":"505120655","code":2101,"fclass":"pharmacy","name":"Abu Kamal Pharmacy"}},
    {"type":"Feature","geometry":{"type":"Point","coordinates":[34.3445441,31.3251975]},"properties":{"osm_id":"505128527","code":2101,"fclass":"pharmacy","name":"Al-Balsam Alshafee Pharmacy"}},
    {"type":"Feature","geometry":{"type":"Point","coordinates":[34.2733376,31.2735258]},"properties":{"osm_id":"505130079","code":2101,"fclass":"pharmacy","name":"صيدلية حسام"}},
    {"type":"Feature","geometry":{"type":"Point","coordinates":[34.2527612,31.2868958]},"properties":{"osm_id":"505134107","code":2101,"fclass":"pharmacy","name":"صيدلية الامل"}},
    {"type":"Feature","geometry":{"type":"Point","coordinates":[34.2554607,31.2803237]},"properties":{"osm_id":"505135547","code":2101,"fclass":"pharmacy","name":"صيدلية القدس"}},
    {"type":"Feature","geometry":{"type":"Point","coordinates":[34.3033366,31.3439795]},"properties":{"osm_id":"505136085","code":2101,"fclass":"pharmacy","name":"Al-Amal Pharmacy"}},
    {"type":"Feature","geometry":{"type":"Point","coordinates":[34.2989417,31.3558353]},"properties":{"osm_id":"505137899","code":2101,"fclass":"pharmacy","name":"صيدلية الرحمة"}},
    {"type":"Feature","geometry":{"type":"Point","coordinates":[34.3054332,31.3495594]},"properties":{"osm_id":"505140535","code":2101,"fclass":"pharmacy","name":"Al-Ameera Amal Pharmacy"}},
    {"type":"Feature","geometry":{"type":"Point","coordinates":[34.8568726,32.0310851]},"properties":{"osm_id":"520482412","code":2101,"fclass":"pharmacy","name":""}},
    {"type":"Feature","geometry":{"type":"Point","coordinates":[35.0153426,32.7828538]},"properties":{"osm_id":"553495461","code":2101,"fclass":"pharmacy","name":""}},
    {"type":"Feature","geometry":{"type":"Point","coordinates":[35.2171268,31.7817184]},"properties":{"osm_id":"560074171","code":2101,"fclass":"pharmacy","name":"סופר-פארם"}},
    {"type":"Feature","geometry":{"type":"Point","coordinates":[35.201867,31.7672414]},"properties":{"osm_id":"560825941","code":2101,"fclass":"pharmacy","name":"סופר-פארם"}},
    {"type":"Feature","geometry":{"type":"Point","coordinates":[35.2159164,31.7803412]},"properties":{"osm_id":"571603039","code":2101,"fclass":"pharmacy","name":""}},
    {"type":"Feature","geometry":{"type":"Point","coordinates":[34.8540835,32.3281416]},"properties":{"osm_id":"662740061","code":2101,"fclass":"pharmacy","name":"רפא-אל"}},
    {"type":"Feature","geometry":{"type":"Point","coordinates":[34.8458854,32.0681785]},"properties":{"osm_id":"669838666","code":2101,"fclass":"pharmacy","name":""}},
    {"type":"Feature","geometry":{"type":"Point","coordinates":[34.8052835,31.9094665]},"properties":{"osm_id":"685973440","code":2101,"fclass":"pharmacy","name":"סופר-פארם"}},
    {"type":"Feature","geometry":{"type":"Point","coordinates":[35.1874561,31.780571]},"properties":{"osm_id":"690155075","code":2101,"fclass":"pharmacy","name":"בית הכרם"}},
    {"type":"Feature","geometry":{"type":"Point","coordinates":[34.8539953,32.2798006]},"properties":{"osm_id":"696736058","code":2101,"fclass":"pharmacy","name":"Clalit"}},
    {"type":"Feature","geometry":{"type":"Point","coordinates":[34.8526232,32.2810555]},"properties":{"osm_id":"696741988","code":2101,"fclass":"pharmacy","name":""}},
    {"type":"Feature","geometry":{"type":"Point","coordinates":[34.8538262,32.2835545]},"properties":{"osm_id":"697011194","code":2101,"fclass":"pharmacy","name":"מכבי פארם"}},
    {"type":"Feature","geometry":{"type":"Point","coordinates":[35.2125029,31.7859233]},"properties":{"osm_id":"712774635","code":2101,"fclass":"pharmacy","name":"אופלטקה"}},
    {"type":"Feature","geometry":{"type":"Point","coordinates":[34.8193895,32.1798864]},"properties":{"osm_id":"739099609","code":2101,"fclass":"pharmacy","name":""}},
    {"type":"Feature","geometry":{"type":"Point","coordinates":[35.0736944,32.8195994]},"properties":{"osm_id":"746330384","code":2101,"fclass":"pharmacy","name":""}},
    {"type":"Feature","geometry":{"type":"Point","coordinates":[35.0707609,32.8198255]},"properties":{"osm_id":"746349992","code":2101,"fclass":"pharmacy","name":"מרבך"}},
    {"type":"Feature","geometry":{"type":"Point","coordinates":[35.2983854,31.7731363]},"properties":{"osm_id":"746577534","code":2101,"fclass":"pharmacy","name":""}},
    {"type":"Feature","geometry":{"type":"Point","coordinates":[34.9866224,31.7568108]},"properties":{"osm_id":"760045087","code":2101,"fclass":"pharmacy","name":"סופר-פארם"}},
    {"type":"Feature","geometry":{"type":"Point","coordinates":[34.9652004,32.8161516]},"properties":{"osm_id":"770313085","code":2101,"fclass":"pharmacy","name":""}},
    {"type":"Feature","geometry":{"type":"Point","coordinates":[34.7821847,32.0752728]},"properties":{"osm_id":"779076563","code":2101,"fclass":"pharmacy","name":"סופר-פארם"}},
    {"type":"Feature","geometry":{"type":"Point","coordinates":[35.2044816,31.7609396]},"properties":{"osm_id":"802631292","code":2101,"fclass":"pharmacy","name":""}},
    {"type":"Feature","geometry":{"type":"Point","coordinates":[35.0134189,32.7833491]},"properties":{"osm_id":"803226088","code":2101,"fclass":"pharmacy","name":"סופר-פארם"}},
    {"type":"Feature","geometry":{"type":"Point","coordinates":[35.0471968,32.7709398]},"properties":{"osm_id":"836533704","code":2101,"fclass":"pharmacy","name":"סופר-פארם"}},
    {"type":"Feature","geometry":{"type":"Point","coordinates":[34.7858942,31.2515177]},"properties":{"osm_id":"863929844","code":2101,"fclass":"pharmacy","name":"סופר-פארם"}},
    {"type":"Feature","geometry":{"type":"Point","coordinates":[34.8617863,32.3259619]},"properties":{"osm_id":"886466624","code":2101,"fclass":"pharmacy","name":"סופר-פארם"}},
    {"type":"Feature","geometry":{"type":"Point","coordinates":[35.5341625,32.7891145]},"properties":{"osm_id":"897627570","code":2101,"fclass":"pharmacy","name":"סופר-פארם"}},
    {"type":"Feature","geometry":{"type":"Point","coordinates":[35.5381536,32.7878337]},"properties":{"osm_id":"899227677","code":2101,"fclass":"pharmacy","name":"סופר-פארם"}},
    {"type":"Feature","geometry":{"type":"Point","coordinates":[34.4537324,31.5286813]},"properties":{"osm_id":"911604652","code":2101,"fclass":"pharmacy","name":"صيديلية الدولي-غزة"}},
    {"type":"Feature","geometry":{"type":"Point","coordinates":[35.197733,31.7149982]},"properties":{"osm_id":"934792729","code":2101,"fclass":"pharmacy","name":"Jordan Chemical Factory"}},
    {"type":"Feature","geometry":{"type":"Point","coordinates":[34.763371,31.2658502]},"properties":{"osm_id":"992087609","code":2101,"fclass":"pharmacy","name":"סופר-פארם"}},
    {"type":"Feature","geometry":{"type":"Point","coordinates":[34.8126096,31.2475645]},"properties":{"osm_id":"1004424674","code":2101,"fclass":"pharmacy","name":"ניו-פארם"}},
    {"type":"Feature","geometry":{"type":"Point","coordinates":[34.8107027,31.2434269]},"properties":{"osm_id":"1012407939","code":2101,"fclass":"pharmacy","name":"סופר-פארם"}},
    {"type":"Feature","geometry":{"type":"Point","coordinates":[34.8432683,32.1512199]},"properties":{"osm_id":"1033363828","code":2101,"fclass":"pharmacy","name":"סופר-פארם"}},
    {"type":"Feature","geometry":{"type":"Point","coordinates":[34.7648696,32.023154]},"properties":{"osm_id":"1059520985","code":2101,"fclass":"pharmacy","name":"מירה פארם"}},
    {"type":"Feature","geometry":{"type":"Point","coordinates":[34.7697978,31.9993811]},"properties":{"osm_id":"1060396954","code":2101,"fclass":"pharmacy","name":""}},
    {"type":"Feature","geometry":{"type":"Point","coordinates":[34.807034,31.8934269]},"properties":{"osm_id":"1070441446","code":2101,"fclass":"pharmacy","name":"סופר-פארם"}},
    {"type":"Feature","geometry":{"type":"Point","coordinates":[35.1958227,31.8172558]},"properties":{"osm_id":"1071388596","code":2101,"fclass":"pharmacy","name":""}},
    {"type":"Feature","geometry":{"type":"Point","coordinates":[34.9598797,29.5661037]},"properties":{"osm_id":"1075054972","code":2101,"fclass":"pharmacy","name":"סופרפארם"}},
    {"type":"Feature","geometry":{"type":"Point","coordinates":[34.9886297,31.7127824]},"properties":{"osm_id":"1078622437","code":2101,"fclass":"pharmacy","name":""}},
    {"type":"Feature","geometry":{"type":"Point","coordinates":[34.9934344,31.7295466]},"properties":{"osm_id":"1078636168","code":2101,"fclass":"pharmacy","name":"קופת חולים מאוחדת"}},
    {"type":"Feature","geometry":{"type":"Point","coordinates":[34.9534696,29.5496041]},"properties":{"osm_id":"1085414352","code":2101,"fclass":"pharmacy","name":"סופרפארם"}},
    {"type":"Feature","geometry":{"type":"Point","coordinates":[34.9608698,29.5500831]},"properties":{"osm_id":"1088301849","code":2101,"fclass":"pharmacy","name":"ניו פארם"}},
    {"type":"Feature","geometry":{"type":"Point","coordinates":[34.9505623,29.5597198]},"properties":{"osm_id":"1088301887","code":2101,"fclass":"pharmacy","name":""}},
    {"type":"Feature","geometry":{"type":"Point","coordinates":[34.950927,29.5558187]},"properties":{"osm_id":"1088301892","code":2101,"fclass":"pharmacy","name":"מיכלין"}},
    {"type":"Feature","geometry":{"type":"Point","coordinates":[34.952145,29.5496459]},"properties":{"osm_id":"1088301903","code":2101,"fclass":"pharmacy","name":"ניו פארם"}},
    {"type":"Feature","geometry":{"type":"Point","coordinates":[34.9528893,29.5543741]},"properties":{"osm_id":"1088301914","code":2101,"fclass":"pharmacy","name":"סופרפארם"}},
    {"type":"Feature","geometry":{"type":"Point","coordinates":[34.9411429,29.5555205]},"properties":{"osm_id":"1088306762","code":2101,"fclass":"pharmacy","name":"קו אופ פארם אילת"}},
    {"type":"Feature","geometry":{"type":"Point","coordinates":[34.9598744,29.5681938]},"properties":{"osm_id":"1088316276","code":2101,"fclass":"pharmacy","name":""}},
    {"type":"Feature","geometry":{"type":"Point","coordinates":[34.945469,29.553981]},"properties":{"osm_id":"1097761129","code":2101,"fclass":"pharmacy","name":""}},
    {"type":"Feature","geometry":{"type":"Point","coordinates":[34.8166038,32.1227167]},"properties":{"osm_id":"1102238405","code":2101,"fclass":"pharmacy","name":"ניו-פארם"}},
    {"type":"Feature","geometry":{"type":"Point","coordinates":[34.9936525,31.7240824]},"properties":{"osm_id":"1110297171","code":2101,"fclass":"pharmacy","name":"קופת חולים מאוחדת"}},
    {"type":"Feature","geometry":{"type":"Point","coordinates":[34.9930087,31.7290555]},"properties":{"osm_id":"1110298792","code":2101,"fclass":"pharmacy","name":"קופת חולים לאומית"}},
    {"type":"Feature","geometry":{"type":"Point","coordinates":[34.9915335,31.7297103]},"properties":{"osm_id":"1110299067","code":2101,"fclass":"pharmacy","name":"קופת חולים מכבי"}},
    {"type":"Feature","geometry":{"type":"Point","coordinates":[34.9920458,31.730405]},"properties":{"osm_id":"1110302289","code":2101,"fclass":"pharmacy","name":"קופת חולים לאומית"}},
    {"type":"Feature","geometry":{"type":"Point","coordinates":[34.7795014,32.0121406]},"properties":{"osm_id":"1112119423","code":2101,"fclass":"pharmacy","name":"סופר-פארם"}},
    {"type":"Feature","geometry":{"type":"Point","coordinates":[34.7710044,32.0182644]},"properties":{"osm_id":"1114981055","code":2101,"fclass":"pharmacy","name":"סופר-פארם"}},
    {"type":"Feature","geometry":{"type":"Point","coordinates":[34.8086821,32.1616856]},"properties":{"osm_id":"1119378927","code":2101,"fclass":"pharmacy","name":"סופר-פארם"}},
    {"type":"Feature","geometry":{"type":"Point","coordinates":[34.7973325,32.1162811]},"properties":{"osm_id":"1126009579","code":2101,"fclass":"pharmacy","name":"סופר-פארם"}},
    {"type":"Feature","geometry":{"type":"Point","coordinates":[34.8388508,32.1081216]},"properties":{"osm_id":"1129170111","code":2101,"fclass":"pharmacy","name":"ניו-פארם"}},
    {"type":"Feature","geometry":{"type":"Point","coordinates":[34.8046644,32.1799548]},"properties":{"osm_id":"1129525411","code":2101,"fclass":"pharmacy","name":"פארמה תמר"}},
    {"type":"Feature","geometry":{"type":"Point","coordinates":[34.7788954,32.0197023]},"properties":{"osm_id":"1132076224","code":2101,"fclass":"pharmacy","name":"ניו-פארם"}},
    {"type":"Feature","geometry":{"type":"Point","coordinates":[34.8257189,32.1146917]},"properties":{"osm_id":"1170362143","code":2101,"fclass":"pharmacy","name":"סופר-פארם"}},
    {"type":"Feature","geometry":{"type":"Point","coordinates":[34.8602645,32.0872863]},"properties":{"osm_id":"1223648263","code":2101,"fclass":"pharmacy","name":""}},
    {"type":"Feature","geometry":{"type":"Point","coordinates":[34.8532776,32.2810102]},"properties":{"osm_id":"1244259016","code":2101,"fclass":"pharmacy","name":"מאוחדת"}},
    {"type":"Feature","geometry":{"type":"Point","coordinates":[35.0156439,32.7910211]},"properties":{"osm_id":"1268847230","code":2101,"fclass":"pharmacy","name":"בית מרקחת נוה שאנן"}},
    {"type":"Feature","geometry":{"type":"Point","coordinates":[34.9548174,32.5684608]},"properties":{"osm_id":"1286217254","code":2101,"fclass":"pharmacy","name":"סופר-פארם"}},
    {"type":"Feature","geometry":{"type":"Point","coordinates":[34.8787958,32.1794165]},"properties":{"osm_id":"1305560936","code":2101,"fclass":"pharmacy","name":"סופר-פארם"}},
    {"type":"Feature","geometry":{"type":"Point","coordinates":[34.8739745,32.1812517]},"properties":{"osm_id":"1307540447","code":2101,"fclass":"pharmacy","name":"מכבי"}},
    {"type":"Feature","geometry":{"type":"Point","coordinates":[34.8737594,32.1821145]},"properties":{"osm_id":"1308696081","code":2101,"fclass":"pharmacy","name":""}},
    {"type":"Feature","geometry":{"type":"Point","coordinates":[34.7974992,32.0889102]},"properties":{"osm_id":"1309308409","code":2101,"fclass":"pharmacy","name":"סופר-פארם"}},
    {"type":"Feature","geometry":{"type":"Point","coordinates":[34.9074551,32.3585361]},"properties":{"osm_id":"1312335797","code":2101,"fclass":"pharmacy","name":"ניו-פארם"}},
    {"type":"Feature","geometry":{"type":"Point","coordinates":[34.8178344,31.8944183]},"properties":{"osm_id":"1339853730","code":2101,"fclass":"pharmacy","name":"בית מרקחת"}},
    {"type":"Feature","geometry":{"type":"Point","coordinates":[35.1033505,31.5506595]},"properties":{"osm_id":"1340963417","code":2101,"fclass":"pharmacy","name":"صيدلية رمضان"}},
    {"type":"Feature","geometry":{"type":"Point","coordinates":[34.3630759,31.3081913]},"properties":{"osm_id":"1350529278","code":2101,"fclass":"pharmacy","name":"Khuza'a Veterinary Clinic"}},
    {"type":"Feature","geometry":{"type":"Point","coordinates":[35.2338414,31.7843002]},"properties":{"osm_id":"1366482448","code":2101,"fclass":"pharmacy","name":"jerusalem pharmecy"}},
    {"type":"Feature","geometry":{"type":"Point","coordinates":[35.034934,31.889789]},"properties":{"osm_id":"1387607595","code":2101,"fclass":"pharmacy","name":"בית מרקחת מכבי"}},
    {"type":"Feature","geometry":{"type":"Point","coordinates":[34.9868196,32.8036858]},"properties":{"osm_id":"1387643098","code":2101,"fclass":"pharmacy","name":"בית מרקחת מרכז"}},
    {"type":"Feature","geometry":{"type":"Point","coordinates":[34.9868076,32.8031418]},"properties":{"osm_id":"1387736547","code":2101,"fclass":"pharmacy","name":""}},
    {"type":"Feature","geometry":{"type":"Point","coordinates":[34.8223593,32.0913019]},"properties":{"osm_id":"1401903996","code":2101,"fclass":"pharmacy","name":"\"בית מרקחת \"אבי"}},
    {"type":"Feature","geometry":{"type":"Point","coordinates":[34.938789,31.3276987]},"properties":{"osm_id":"1404061572","code":2101,"fclass":"pharmacy","name":""}},
    {"type":"Feature","geometry":{"type":"Point","coordinates":[34.3613675,31.3070555]},"properties":{"osm_id":"1431334773","code":2101,"fclass":"pharmacy","name":"central Khuza'a pharmacy"}},
    {"type":"Feature","geometry":{"type":"Point","coordinates":[34.8028387,32.0672055]},"properties":{"osm_id":"1437321466","code":2101,"fclass":"pharmacy","name":"סופר-פארם"}},
    {"type":"Feature","geometry":{"type":"Point","coordinates":[34.9826729,32.2202135]},"properties":{"osm_id":"1449511264","code":2101,"fclass":"pharmacy","name":"סופר-פארם"}},
    {"type":"Feature","geometry":{"type":"Point","coordinates":[34.8691855,32.0570035]},"properties":{"osm_id":"1467943286","code":2101,"fclass":"pharmacy","name":"סופר-פארם"}},